{
"type": "FeatureCollection",
"crs": { "type": "name", "properties": { "name": "urn:ogc:def:crs:OGC:1.3:CRS84" } },
"features": [
{ "type": "Feature", "properties": { "station_name": "ABADAN", "station_id": "40831", "station_latitude": 30.37722222, "station_longitude": 48.21472222, "station_altitude": 6.6, "date_min": "2000-01-01T00:00:00", "date_max": "2022-07-12T00:00:00", "state_id": "IR10", "state_name": "Khuzestan" }, "geometry": { "type": "Point", "coordinates": [ 48.21472222, 30.37722222 ] } },
{ "type": "Feature", "properties": { "station_name": "ABADCHI-FARIDAN", "station_id": "19264", "station_latitude": 32.7167, "station_longitude": 50.6831, "station_altitude": 2100.0, "date_min": "2014-10-14T00:00:00", "date_max": "2015-07-12T00:00:00", "state_id": "IR04", "state_name": "Esfahan" }, "geometry": { "type": "Point", "coordinates": [ 50.6831, 32.7167 ] } },
{ "type": "Feature", "properties": { "station_name": "ABADE TASHK", "station_id": "19689", "station_latitude": 29.8, "station_longitude": 53.72, "station_altitude": 1601.0, "date_min": "2000-06-01T00:00:00", "date_max": "2022-07-12T00:00:00", "state_id": "IR14", "state_name": "Fars" }, "geometry": { "type": "Point", "coordinates": [ 53.72, 29.8 ] } },
{ "type": "Feature", "properties": { "station_name": "ABADEH", "station_id": "40818", "station_latitude": 31.19833333, "station_longitude": 52.61638889, "station_altitude": 2030.0, "date_min": "2000-01-01T00:00:00", "date_max": "2022-07-12T00:00:00", "state_id": "IR14", "state_name": "Fars" }, "geometry": { "type": "Point", "coordinates": [ 52.61638889, 31.19833333 ] } },
{ "type": "Feature", "properties": { "station_name": "ABALI", "station_id": "40755", "station_latitude": 35.75, "station_longitude": 51.88333333, "station_altitude": 2465.0, "date_min": "2000-01-01T00:00:00", "date_max": "2022-07-12T00:00:00", "state_id": "IR07", "state_name": "Tehran" }, "geometry": { "type": "Point", "coordinates": [ 51.88333333, 35.75 ] } },
{ "type": "Feature", "properties": { "station_name": "ABARDEJ", "station_id": "18854", "station_latitude": 35.2167, "station_longitude": 51.7994, "station_altitude": 900.0, "date_min": "2000-01-01T00:00:00", "date_max": "2004-05-31T00:00:00", "state_id": "IR07", "state_name": "Tehran" }, "geometry": { "type": "Point", "coordinates": [ 51.7994, 35.2167 ] } },
{ "type": "Feature", "properties": { "station_name": "ABARKOH", "station_id": "19545", "station_latitude": 31.1331, "station_longitude": 53.2831, "station_altitude": 1506.0, "date_min": "2000-01-01T00:00:00", "date_max": "2015-09-10T00:00:00", "state_id": "IR14", "state_name": "Fars" }, "geometry": { "type": "Point", "coordinates": [ 53.2831, 31.1331 ] } },
{ "type": "Feature", "properties": { "station_name": "ABARKUH", "station_id": "99539", "station_latitude": 31.12, "station_longitude": 53.22722222, "station_altitude": 1523.8, "date_min": "2003-01-01T00:00:00", "date_max": "2022-07-12T00:00:00", "state_id": "IR14", "state_name": "Fars" }, "geometry": { "type": "Point", "coordinates": [ 53.22722222, 31.12 ] } },
{ "type": "Feature", "properties": { "station_name": "ABBAR", "station_id": "18297", "station_latitude": 36.9331, "station_longitude": 48.9667, "station_altitude": 728.0, "date_min": "2000-01-01T00:00:00", "date_max": "2002-07-31T00:00:00", "state_id": "IR11", "state_name": "Zanjan" }, "geometry": { "type": "Point", "coordinates": [ 48.9667, 36.9331 ] } },
{ "type": "Feature", "properties": { "station_name": "ABBAR", "station_id": "99298", "station_latitude": 36.9339, "station_longitude": 48.9408, "station_altitude": 624.7, "date_min": "2003-01-01T00:00:00", "date_max": "2022-07-12T00:00:00", "state_id": "IR11", "state_name": "Zanjan" }, "geometry": { "type": "Point", "coordinates": [ 48.9408, 36.9339 ] } },
{ "type": "Feature", "properties": { "station_name": "ABDANAN", "station_id": "99488", "station_latitude": 32.99611111, "station_longitude": 47.4225, "station_altitude": 920.0, "date_min": "2009-09-01T00:00:00", "date_max": "2022-07-12T00:00:00", "state_id": "IR05", "state_name": "Ilam" }, "geometry": { "type": "Point", "coordinates": [ 47.4225, 32.99611111 ] } },
{ "type": "Feature", "properties": { "station_name": "ABHAR", "station_id": "18541", "station_latitude": 36.18, "station_longitude": 49.22, "station_altitude": 1552.0, "date_min": "2019-05-06T00:00:00", "date_max": "2022-07-12T00:00:00", "state_id": "IR11", "state_name": "Zanjan" }, "geometry": { "type": "Point", "coordinates": [ 49.22, 36.18 ] } },
{ "type": "Feature", "properties": { "station_name": "ABKHIZDARI-ZAYANDEHROUD", "station_id": "19281", "station_latitude": 32.67, "station_longitude": 50.72, "station_altitude": 2100.0, "date_min": "2000-01-01T00:00:00", "date_max": "2022-03-31T00:00:00", "state_id": "IR04", "state_name": "Esfahan" }, "geometry": { "type": "Point", "coordinates": [ 50.72, 32.67 ] } },
{ "type": "Feature", "properties": { "station_name": "ABPAKHSH", "station_id": "19749", "station_latitude": 29.22, "station_longitude": 51.03, "station_altitude": 46.0, "date_min": "2000-08-01T00:00:00", "date_max": "2022-07-12T00:00:00", "state_id": "IR06", "state_name": "Bushehr" }, "geometry": { "type": "Point", "coordinates": [ 51.03, 29.22 ] } },
{ "type": "Feature", "properties": { "station_name": "ABRAHIMABAD MEHRIZ", "station_id": "19452", "station_latitude": 31.65, "station_longitude": 54.3333, "station_altitude": 1630.0, "date_min": "2000-01-01T00:00:00", "date_max": "2013-02-28T00:00:00", "state_id": "IR25", "state_name": "Yazd" }, "geometry": { "type": "Point", "coordinates": [ 54.3333, 31.65 ] } },
{ "type": "Feature", "properties": { "station_name": "ABUMUSA ISLAND", "station_id": "40890", "station_latitude": 25.87416667, "station_longitude": 55.01333333, "station_altitude": 6.6, "date_min": "2000-01-01T00:00:00", "date_max": "2022-07-12T00:00:00", "state_id": "IR23", "state_name": "Hormozgan" }, "geometry": { "type": "Point", "coordinates": [ 55.01333333, 25.87416667 ] } },
{ "type": "Feature", "properties": { "station_name": "ABYANEH", "station_id": "19136", "station_latitude": 33.57, "station_longitude": 51.58, "station_altitude": 2234.0, "date_min": "2000-01-01T00:00:00", "date_max": "2022-05-31T00:00:00", "state_id": "IR04", "state_name": "Esfahan" }, "geometry": { "type": "Point", "coordinates": [ 51.58, 33.57 ] } },
{ "type": "Feature", "properties": { "station_name": "ABYEK", "station_id": "99368", "station_latitude": 36.01944444, "station_longitude": 50.53833333, "station_altitude": 1226.0, "date_min": "2013-10-08T00:00:00", "date_max": "2022-07-12T00:00:00", "state_id": "IR28", "state_name": "Qazvin" }, "geometry": { "type": "Point", "coordinates": [ 50.53833333, 36.01944444 ] } },
{ "type": "Feature", "properties": { "station_name": "ADL DEZAK", "station_id": "19391", "station_latitude": 32.08, "station_longitude": 50.95, "station_altitude": 2054.0, "date_min": "2000-01-01T00:00:00", "date_max": "2022-05-31T00:00:00", "state_id": "IR08", "state_name": "Chahar Mahall and Bakhtiari" }, "geometry": { "type": "Point", "coordinates": [ 50.95, 32.08 ] } },
{ "type": "Feature", "properties": { "station_name": "AFRACHAL", "station_id": "18516", "station_latitude": 36.2333, "station_longitude": 53.25, "station_altitude": 723.0, "date_min": "2000-01-01T00:00:00", "date_max": "2013-12-31T00:00:00", "state_id": "IR21", "state_name": "Mazandaran" }, "geometry": { "type": "Point", "coordinates": [ 53.25, 36.2333 ] } },
{ "type": "Feature", "properties": { "station_name": "AGHAJARI", "station_id": "99538", "station_latitude": 30.69666667, "station_longitude": 49.82805556, "station_altitude": 143.0, "date_min": "2011-01-01T00:00:00", "date_max": "2022-07-12T00:00:00", "state_id": "IR10", "state_name": "Khuzestan" }, "geometry": { "type": "Point", "coordinates": [ 49.82805556, 30.69666667 ] } },
{ "type": "Feature", "properties": { "station_name": "AGHGHALEH", "station_id": "18280", "station_latitude": 37.0167, "station_longitude": 54.4331, "station_altitude": -10.0, "date_min": "2021-06-19T00:00:00", "date_max": "2022-07-12T00:00:00", "state_id": "IR27", "state_name": "Golestan" }, "geometry": { "type": "Point", "coordinates": [ 54.4331, 37.0167 ] } },
{ "type": "Feature", "properties": { "station_name": "AGHTOGHEH", "station_id": "18082", "station_latitude": 37.9, "station_longitude": 55.72, "station_altitude": 250.0, "date_min": "2011-01-01T00:00:00", "date_max": "2022-06-30T00:00:00", "state_id": "IR27", "state_name": "Golestan" }, "geometry": { "type": "Point", "coordinates": [ 55.72, 37.9 ] } },
{ "type": "Feature", "properties": { "station_name": "AHAR", "station_id": "40704", "station_latitude": 38.43333333, "station_longitude": 47.06666667, "station_altitude": 1391.0, "date_min": "2000-01-01T00:00:00", "date_max": "2022-07-12T00:00:00", "state_id": "IR01", "state_name": "East Azarbaijan" }, "geometry": { "type": "Point", "coordinates": [ 47.06666667, 38.43333333 ] } },
{ "type": "Feature", "properties": { "station_name": "AHMAD ABAD", "station_id": "18694", "station_latitude": 35.77, "station_longitude": 56.6, "station_altitude": 980.0, "date_min": "2000-01-01T00:00:00", "date_max": "2022-06-30T00:00:00", "state_id": "IR12", "state_name": "Semnan" }, "geometry": { "type": "Point", "coordinates": [ 56.6, 35.77 ] } },
{ "type": "Feature", "properties": { "station_name": "AHRAM", "station_id": "19865", "station_latitude": 28.88, "station_longitude": 51.27, "station_altitude": 57.0, "date_min": "2022-06-23T00:00:00", "date_max": "2022-07-12T00:00:00", "state_id": "IR06", "state_name": "Bushehr" }, "geometry": { "type": "Point", "coordinates": [ 51.27, 28.88 ] } },
{ "type": "Feature", "properties": { "station_name": "AHVAZ", "station_id": "40811", "station_latitude": 31.3442, "station_longitude": 48.7442, "station_altitude": 22.5, "date_min": "2000-01-01T00:00:00", "date_max": "2022-07-12T00:00:00", "state_id": "IR10", "state_name": "Khuzestan" }, "geometry": { "type": "Point", "coordinates": [ 48.7442, 31.3442 ] } },
{ "type": "Feature", "properties": { "station_name": "AHVAZ (AGRICULTURAL)", "station_id": "99535", "station_latitude": 31.25, "station_longitude": 48.55, "station_altitude": 12.0, "date_min": "2005-01-01T00:00:00", "date_max": "2022-07-12T00:00:00", "state_id": "IR10", "state_name": "Khuzestan" }, "geometry": { "type": "Point", "coordinates": [ 48.55, 31.25 ] } },
{ "type": "Feature", "properties": { "station_name": "AJABSHIR", "station_id": "99236", "station_latitude": 37.5, "station_longitude": 45.85, "station_altitude": 1311.0, "date_min": "2013-02-26T00:00:00", "date_max": "2022-07-12T00:00:00", "state_id": "IR01", "state_name": "East Azarbaijan" }, "geometry": { "type": "Point", "coordinates": [ 45.85, 37.5 ] } },
{ "type": "Feature", "properties": { "station_name": "ALASHT", "station_id": "99361", "station_latitude": 36.0719, "station_longitude": 52.8425, "station_altitude": 1805.0, "date_min": "2003-01-01T00:00:00", "date_max": "2022-07-12T00:00:00", "state_id": "IR21", "state_name": "Mazandaran" }, "geometry": { "type": "Point", "coordinates": [ 52.8425, 36.0719 ] } },
{ "type": "Feature", "properties": { "station_name": "ALASHTAR", "station_id": "40776", "station_latitude": 33.82472222, "station_longitude": 48.24527778, "station_altitude": 1567.1, "date_min": "2000-01-01T00:00:00", "date_max": "2022-07-12T00:00:00", "state_id": "IR20", "state_name": "Lorestan" }, "geometry": { "type": "Point", "coordinates": [ 48.24527778, 33.82472222 ] } },
{ "type": "Feature", "properties": { "station_name": "ALAVIJEH", "station_id": "19199", "station_latitude": 33.17, "station_longitude": 50.17, "station_altitude": 1680.0, "date_min": "2004-01-01T00:00:00", "date_max": "2022-04-30T00:00:00", "state_id": "IR04", "state_name": "Esfahan" }, "geometry": { "type": "Point", "coordinates": [ 50.17, 33.17 ] } },
{ "type": "Feature", "properties": { "station_name": "ALI ABADE KAMIN", "station_id": "19653", "station_latitude": 30.02, "station_longitude": 53.15, "station_altitude": 1892.0, "date_min": "2000-01-01T00:00:00", "date_max": "2022-07-12T00:00:00", "state_id": "IR14", "state_name": "Fars" }, "geometry": { "type": "Point", "coordinates": [ 53.15, 30.02 ] } },
{ "type": "Feature", "properties": { "station_name": "ALIABAD ZAREIN", "station_id": "19262", "station_latitude": 32.19, "station_longitude": 58.9, "station_altitude": 1239.0, "date_min": "2018-06-21T00:00:00", "date_max": "2022-07-12T00:00:00", "state_id": "IR29", "state_name": "South Khorasan" }, "geometry": { "type": "Point", "coordinates": [ 58.9, 32.19 ] } },
{ "type": "Feature", "properties": { "station_name": "ALIABAD-E-KATUL", "station_id": "99300", "station_latitude": 36.9, "station_longitude": 54.88333333, "station_altitude": 184.0, "date_min": "2007-01-01T00:00:00", "date_max": "2022-07-12T00:00:00", "state_id": "IR27", "state_name": "Golestan" }, "geometry": { "type": "Point", "coordinates": [ 54.88333333, 36.9 ] } },
{ "type": "Feature", "properties": { "station_name": "ALIABADE PISHKOOH", "station_id": "19449", "station_latitude": 31.65, "station_longitude": 53.8333, "station_altitude": 2372.0, "date_min": "2005-01-01T00:00:00", "date_max": "2013-09-30T00:00:00", "state_id": "IR25", "state_name": "Yazd" }, "geometry": { "type": "Point", "coordinates": [ 53.8333, 31.65 ] } },
{ "type": "Feature", "properties": { "station_name": "ALIGUDARZ", "station_id": "40783", "station_latitude": 33.4081, "station_longitude": 49.7025, "station_altitude": 2022.1, "date_min": "2000-01-01T00:00:00", "date_max": "2022-07-12T00:00:00", "state_id": "IR20", "state_name": "Lorestan" }, "geometry": { "type": "Point", "coordinates": [ 49.7025, 33.4081 ] } },
{ "type": "Feature", "properties": { "station_name": "AMANABAD", "station_id": "19060", "station_latitude": 34.0047, "station_longitude": 49.9283, "station_altitude": 1728.0, "date_min": "2022-06-13T00:00:00", "date_max": "2022-07-12T00:00:00", "state_id": "IR22", "state_name": "Markazi" }, "geometry": { "type": "Point", "coordinates": [ 49.9283, 34.0047 ] } },
{ "type": "Feature", "properties": { "station_name": "AMIN ABAD", "station_id": "18761", "station_latitude": 35.57, "station_longitude": 51.66, "station_altitude": 1046.0, "date_min": "2000-01-01T00:00:00", "date_max": "2020-02-29T00:00:00", "state_id": "IR07", "state_name": "Tehran" }, "geometry": { "type": "Point", "coordinates": [ 51.66, 35.57 ] } },
{ "type": "Feature", "properties": { "station_name": "AMIR KABIR", "station_id": "19548", "station_latitude": 31.1, "station_longitude": 48.3, "station_altitude": 7.0, "date_min": "2000-05-01T00:00:00", "date_max": "2016-07-31T00:00:00", "state_id": "IR10", "state_name": "Khuzestan" }, "geometry": { "type": "Point", "coordinates": [ 48.3, 31.1 ] } },
{ "type": "Feature", "properties": { "station_name": "AMIRIEH", "station_id": "18577", "station_latitude": 36.08, "station_longitude": 54.2, "station_altitude": 1170.0, "date_min": "2008-04-01T00:00:00", "date_max": "2022-06-30T00:00:00", "state_id": "IR12", "state_name": "Semnan" }, "geometry": { "type": "Point", "coordinates": [ 54.2, 36.08 ] } },
{ "type": "Feature", "properties": { "station_name": "AMLASH", "station_id": "18261", "station_latitude": 37.1, "station_longitude": 50.17, "station_altitude": 40.0, "date_min": "2019-07-08T00:00:00", "date_max": "2022-07-12T00:00:00", "state_id": "IR19", "state_name": "Gilan" }, "geometry": { "type": "Point", "coordinates": [ 50.17, 37.1 ] } },
{ "type": "Feature", "properties": { "station_name": "AMOL", "station_id": "99309", "station_latitude": 36.46666667, "station_longitude": 52.38333333, "station_altitude": 23.7, "date_min": "2001-01-01T00:00:00", "date_max": "2022-07-12T00:00:00", "state_id": "IR21", "state_name": "Mazandaran" }, "geometry": { "type": "Point", "coordinates": [ 52.38333333, 36.46666667 ] } },
{ "type": "Feature", "properties": { "station_name": "ANAR", "station_id": "40839", "station_latitude": 30.88333333, "station_longitude": 55.25, "station_altitude": 1409.0, "date_min": "2000-01-01T00:00:00", "date_max": "2022-07-12T00:00:00", "state_id": "IR15", "state_name": "Kerman" }, "geometry": { "type": "Point", "coordinates": [ 55.25, 30.88333333 ] } },
{ "type": "Feature", "properties": { "station_name": "ANBARABAD", "station_id": "19863", "station_latitude": 28.48, "station_longitude": 57.85, "station_altitude": 610.0, "date_min": "2018-09-23T00:00:00", "date_max": "2022-07-12T00:00:00", "state_id": "IR15", "state_name": "Kerman" }, "geometry": { "type": "Point", "coordinates": [ 57.85, 28.48 ] } },
{ "type": "Feature", "properties": { "station_name": "AQDA", "station_id": "40804", "station_latitude": 32.445, "station_longitude": 53.64166667, "station_altitude": 1150.0, "date_min": "2003-01-01T00:00:00", "date_max": "2022-07-12T00:00:00", "state_id": "IR25", "state_name": "Yazd" }, "geometry": { "type": "Point", "coordinates": [ 53.64166667, 32.445 ] } },
{ "type": "Feature", "properties": { "station_name": "ARADAN", "station_id": "18822", "station_latitude": 35.25, "station_longitude": 52.42, "station_altitude": 964.0, "date_min": "2000-01-01T00:00:00", "date_max": "2022-06-30T00:00:00", "state_id": "IR12", "state_name": "Semnan" }, "geometry": { "type": "Point", "coordinates": [ 52.42, 35.25 ] } },
{ "type": "Feature", "properties": { "station_name": "ARAK", "station_id": "40769", "station_latitude": 34.07194444, "station_longitude": 49.78333333, "station_altitude": 1702.8, "date_min": "2000-01-01T00:00:00", "date_max": "2022-07-12T00:00:00", "state_id": "IR22", "state_name": "Markazi" }, "geometry": { "type": "Point", "coordinates": [ 49.78333333, 34.07194444 ] } },
{ "type": "Feature", "properties": { "station_name": "ARAK (AIRPORT)", "station_id": "88132", "station_latitude": 34.13277778, "station_longitude": 49.83944444, "station_altitude": 1661.9, "date_min": "2022-06-23T00:00:00", "date_max": "2022-07-12T00:00:00", "state_id": "IR22", "state_name": "Markazi" }, "geometry": { "type": "Point", "coordinates": [ 49.83944444, 34.13277778 ] } },
{ "type": "Feature", "properties": { "station_name": "ARAN BIDGOL", "station_id": "19048", "station_latitude": 34.03, "station_longitude": 51.47, "station_altitude": 934.0, "date_min": "2007-01-01T00:00:00", "date_max": "2022-07-12T00:00:00", "state_id": "IR04", "state_name": "Esfahan" }, "geometry": { "type": "Point", "coordinates": [ 51.47, 34.03 ] } },
{ "type": "Feature", "properties": { "station_name": "ARAN SHAR (SEDEH)", "station_id": "19178", "station_latitude": 33.66, "station_longitude": 59.23, "station_altitude": 1600.0, "date_min": "2000-01-01T00:00:00", "date_max": "2022-06-30T00:00:00", "state_id": "IR29", "state_name": "South Khorasan" }, "geometry": { "type": "Point", "coordinates": [ 59.23, 33.66 ] } },
{ "type": "Feature", "properties": { "station_name": "ARASK", "station_id": "19120", "station_latitude": 33.71, "station_longitude": 57.37, "station_altitude": 1137.0, "date_min": "2001-01-01T00:00:00", "date_max": "2022-06-30T00:00:00", "state_id": "IR30", "state_name": "Razavi Khorasan" }, "geometry": { "type": "Point", "coordinates": [ 57.37, 33.71 ] } },
{ "type": "Feature", "properties": { "station_name": "ARDAKAN", "station_id": "19352", "station_latitude": 32.29, "station_longitude": 54.03, "station_altitude": 1048.0, "date_min": "2000-01-01T00:00:00", "date_max": "2022-07-12T00:00:00", "state_id": "IR25", "state_name": "Yazd" }, "geometry": { "type": "Point", "coordinates": [ 54.03, 32.29 ] } },
{ "type": "Feature", "properties": { "station_name": "ARDAL", "station_id": "99518", "station_latitude": 32.005, "station_longitude": 50.65861111, "station_altitude": 1873.0, "date_min": "2009-04-01T00:00:00", "date_max": "2022-07-12T00:00:00", "state_id": "IR08", "state_name": "Chahar Mahall and Bakhtiari" }, "geometry": { "type": "Point", "coordinates": [ 50.65861111, 32.005 ] } },
{ "type": "Feature", "properties": { "station_name": "ARDEBIL", "station_id": "40708", "station_latitude": 38.21805556, "station_longitude": 48.32861111, "station_altitude": 1314.3, "date_min": "2000-01-01T00:00:00", "date_max": "2022-07-12T00:00:00", "state_id": "IR03", "state_name": "Ardebil" }, "geometry": { "type": "Point", "coordinates": [ 48.32861111, 38.21805556 ] } },
{ "type": "Feature", "properties": { "station_name": "ARDEBIL (AIRPORT)", "station_id": "88107", "station_latitude": 38.33055556, "station_longitude": 48.41583333, "station_altitude": 1335.2, "date_min": "2004-01-01T00:00:00", "date_max": "2022-07-12T00:00:00", "state_id": "IR03", "state_name": "Ardebil" }, "geometry": { "type": "Point", "coordinates": [ 48.41583333, 38.33055556 ] } },
{ "type": "Feature", "properties": { "station_name": "ARDESTAN", "station_id": "40799", "station_latitude": 33.35555556, "station_longitude": 52.37555556, "station_altitude": 1255.5, "date_min": "2000-01-01T00:00:00", "date_max": "2022-07-12T00:00:00", "state_id": "IR04", "state_name": "Esfahan" }, "geometry": { "type": "Point", "coordinates": [ 52.37555556, 33.35555556 ] } },
{ "type": "Feature", "properties": { "station_name": "ARMAGHANKHANEH", "station_id": "18282", "station_latitude": 36.97, "station_longitude": 48.37, "station_altitude": 1946.0, "date_min": "2021-10-28T00:00:00", "date_max": "2022-07-12T00:00:00", "state_id": "IR11", "state_name": "Zanjan" }, "geometry": { "type": "Point", "coordinates": [ 48.37, 36.97 ] } },
{ "type": "Feature", "properties": { "station_name": "ARSANJAN", "station_id": "99579", "station_latitude": 29.93333333, "station_longitude": 53.28333333, "station_altitude": 1676.0, "date_min": "2006-10-01T00:00:00", "date_max": "2022-07-12T00:00:00", "state_id": "IR14", "state_name": "Fars" }, "geometry": { "type": "Point", "coordinates": [ 53.28333333, 29.93333333 ] } },
{ "type": "Feature", "properties": { "station_name": "ARSANJHON", "station_id": "19673", "station_latitude": 29.9167, "station_longitude": 53.3167, "station_altitude": 1690.0, "date_min": "2000-01-01T00:00:00", "date_max": "2006-06-30T00:00:00", "state_id": "IR14", "state_name": "Fars" }, "geometry": { "type": "Point", "coordinates": [ 53.3167, 29.9167 ] } },
{ "type": "Feature", "properties": { "station_name": "ASAD ABAAD", "station_id": "18742", "station_latitude": 35.65, "station_longitude": 59.35, "station_altitude": 1770.0, "date_min": "2000-01-01T00:00:00", "date_max": "2022-06-30T00:00:00", "state_id": "IR30", "state_name": "Razavi Khorasan" }, "geometry": { "type": "Point", "coordinates": [ 59.35, 35.65 ] } },
{ "type": "Feature", "properties": { "station_name": "ASADABAD", "station_id": "99422", "station_latitude": 34.76666667, "station_longitude": 48.11666667, "station_altitude": 1552.0, "date_min": "2006-02-25T00:00:00", "date_max": "2022-07-12T00:00:00", "state_id": "IR24", "state_name": "Hamadan" }, "geometry": { "type": "Point", "coordinates": [ 48.11666667, 34.76666667 ] } },
{ "type": "Feature", "properties": { "station_name": "ASADABAD-BIRJAND", "station_id": "19240", "station_latitude": 32.9167, "station_longitude": 60.0167, "station_altitude": 1500.0, "date_min": "2000-01-01T00:00:00", "date_max": "2013-03-31T00:00:00", "state_id": "IR29", "state_name": "South Khorasan" }, "geometry": { "type": "Point", "coordinates": [ 60.0167, 32.9167 ] } },
{ "type": "Feature", "properties": { "station_name": "ASALUYEH (AIRPORT)", "station_id": "88188", "station_latitude": 27.48472222, "station_longitude": 52.61638889, "station_altitude": 7.0, "date_min": "2000-10-01T00:00:00", "date_max": "2022-07-12T00:00:00", "state_id": "IR06", "state_name": "Bushehr" }, "geometry": { "type": "Point", "coordinates": [ 52.61638889, 27.48472222 ] } },
{ "type": "Feature", "properties": { "station_name": "ASARA", "station_id": "18590", "station_latitude": 36.04, "station_longitude": 51.19, "station_altitude": 1864.0, "date_min": "2019-03-11T00:00:00", "date_max": "2022-07-12T00:00:00", "state_id": "IR09", "state_name": "Alborz" }, "geometry": { "type": "Point", "coordinates": [ 51.19, 36.04 ] } },
{ "type": "Feature", "properties": { "station_name": "ASBE VOONI", "station_id": "18131", "station_latitude": 37.62, "station_longitude": 48.77, "station_altitude": 1450.0, "date_min": "2000-01-01T00:00:00", "date_max": "2022-07-12T00:00:00", "state_id": "IR19", "state_name": "Gilan" }, "geometry": { "type": "Point", "coordinates": [ 48.77, 37.62 ] } },
{ "type": "Feature", "properties": { "station_name": "ASHKZAR", "station_id": "19408", "station_latitude": 31.01, "station_longitude": 54.19, "station_altitude": 1165.0, "date_min": "2000-01-01T00:00:00", "date_max": "2022-07-12T00:00:00", "state_id": "IR25", "state_name": "Yazd" }, "geometry": { "type": "Point", "coordinates": [ 54.19, 31.01 ] } },
{ "type": "Feature", "properties": { "station_name": "ASHTIYAN", "station_id": "99410", "station_latitude": 34.518575, "station_longitude": 50.012463, "station_altitude": 2097.0, "date_min": "2010-10-01T00:00:00", "date_max": "2022-07-12T00:00:00", "state_id": "IR22", "state_name": "Markazi" }, "geometry": { "type": "Point", "coordinates": [ 50.012463, 34.518575 ] } },
{ "type": "Feature", "properties": { "station_name": "ASTANE ASHRAFIYE", "station_id": "18221", "station_latitude": 37.29, "station_longitude": 49.93, "station_altitude": -20.0, "date_min": "2019-05-11T00:00:00", "date_max": "2022-07-12T00:00:00", "state_id": "IR19", "state_name": "Gilan" }, "geometry": { "type": "Point", "coordinates": [ 49.93, 37.29 ] } },
{ "type": "Feature", "properties": { "station_name": "ASTARA", "station_id": "40709", "station_latitude": 38.365, "station_longitude": 48.85472222, "station_altitude": -21.1, "date_min": "2000-01-01T00:00:00", "date_max": "2022-07-12T00:00:00", "state_id": "IR19", "state_name": "Gilan" }, "geometry": { "type": "Point", "coordinates": [ 48.85472222, 38.365 ] } },
{ "type": "Feature", "properties": { "station_name": "AVAJ", "station_id": "99310", "station_latitude": 35.5667, "station_longitude": 49.2167, "station_altitude": 2034.9, "date_min": "2000-01-01T00:00:00", "date_max": "2022-07-12T00:00:00", "state_id": "IR28", "state_name": "Qazvin" }, "geometry": { "type": "Point", "coordinates": [ 49.2167, 35.5667 ] } },
{ "type": "Feature", "properties": { "station_name": "AVERGAN", "station_id": "19424", "station_latitude": 31.9, "station_longitude": 50.95, "station_altitude": 2410.0, "date_min": "2008-01-01T00:00:00", "date_max": "2022-05-31T00:00:00", "state_id": "IR08", "state_name": "Chahar Mahall and Bakhtiari" }, "geometry": { "type": "Point", "coordinates": [ 50.95, 31.9 ] } },
{ "type": "Feature", "properties": { "station_name": "AVIHANG", "station_id": "18840", "station_latitude": 35.25, "station_longitude": 46.68, "station_altitude": 1630.0, "date_min": "2000-03-01T00:00:00", "date_max": "2022-07-12T00:00:00", "state_id": "IR16", "state_name": "Kordestan" }, "geometry": { "type": "Point", "coordinates": [ 46.68, 35.25 ] } },
{ "type": "Feature", "properties": { "station_name": "AZARSHAHR", "station_id": "18113", "station_latitude": 37.75, "station_longitude": 45.9833, "station_altitude": 1367.0, "date_min": "2020-05-20T00:00:00", "date_max": "2022-07-12T00:00:00", "state_id": "IR01", "state_name": "East Azarbaijan" }, "geometry": { "type": "Point", "coordinates": [ 45.9833, 37.75 ] } },
{ "type": "Feature", "properties": { "station_name": "AZBERAM", "station_id": "18253", "station_latitude": 37.14, "station_longitude": 49.92, "station_altitude": 50.0, "date_min": "2000-01-01T00:00:00", "date_max": "2022-07-12T00:00:00", "state_id": "IR19", "state_name": "Gilan" }, "geometry": { "type": "Point", "coordinates": [ 49.92, 37.14 ] } },
{ "type": "Feature", "properties": { "station_name": "AZNA", "station_id": "99445", "station_latitude": 33.44722222, "station_longitude": 49.40805556, "station_altitude": 1871.8, "date_min": "2000-06-01T00:00:00", "date_max": "2022-07-12T00:00:00", "state_id": "IR20", "state_name": "Lorestan" }, "geometry": { "type": "Point", "coordinates": [ 49.40805556, 33.44722222 ] } },
{ "type": "Feature", "properties": { "station_name": "BAAR", "station_id": "18439", "station_latitude": 36.48, "station_longitude": 58.7, "station_altitude": 1520.0, "date_min": "2000-01-01T00:00:00", "date_max": "2022-06-30T00:00:00", "state_id": "IR30", "state_name": "Razavi Khorasan" }, "geometry": { "type": "Point", "coordinates": [ 58.7, 36.48 ] } },
{ "type": "Feature", "properties": { "station_name": "BABARASHANI", "station_id": "18728", "station_latitude": 35.68, "station_longitude": 47.79, "station_altitude": 1662.0, "date_min": "2004-02-01T00:00:00", "date_max": "2022-07-12T00:00:00", "state_id": "IR16", "state_name": "Kordestan" }, "geometry": { "type": "Point", "coordinates": [ 47.79, 35.68 ] } },
{ "type": "Feature", "properties": { "station_name": "BABOLKENAR", "station_id": "18420", "station_latitude": 36.35, "station_longitude": 52.72, "station_altitude": 91.0, "date_min": "2000-01-01T00:00:00", "date_max": "2022-06-30T00:00:00", "state_id": "IR21", "state_name": "Mazandaran" }, "geometry": { "type": "Point", "coordinates": [ 52.72, 36.35 ] } },
{ "type": "Feature", "properties": { "station_name": "BABOLSAR", "station_id": "40736", "station_latitude": 36.72, "station_longitude": 52.65305556, "station_altitude": -21.0, "date_min": "2000-01-01T00:00:00", "date_max": "2022-07-12T00:00:00", "state_id": "IR21", "state_name": "Mazandaran" }, "geometry": { "type": "Point", "coordinates": [ 52.65305556, 36.72 ] } },
{ "type": "Feature", "properties": { "station_name": "BADIJAN", "station_id": "19211", "station_latitude": 33.08, "station_longitude": 50.33, "station_altitude": 2300.0, "date_min": "2000-01-01T00:00:00", "date_max": "2022-03-31T00:00:00", "state_id": "IR04", "state_name": "Esfahan" }, "geometry": { "type": "Point", "coordinates": [ 50.33, 33.08 ] } },
{ "type": "Feature", "properties": { "station_name": "BADRABAD (LORESTAN)", "station_id": "99475", "station_latitude": 33.43388889, "station_longitude": 48.27944444, "station_altitude": 1154.8, "date_min": "2002-01-01T00:00:00", "date_max": "2022-07-12T00:00:00", "state_id": "IR20", "state_name": "Lorestan" }, "geometry": { "type": "Point", "coordinates": [ 48.27944444, 33.43388889 ] } },
{ "type": "Feature", "properties": { "station_name": "BADREH", "station_id": "19184", "station_latitude": 33.31, "station_longitude": 47.03, "station_altitude": 1064.0, "date_min": "2018-08-08T00:00:00", "date_max": "2022-07-12T00:00:00", "state_id": "IR05", "state_name": "Ilam" }, "geometry": { "type": "Point", "coordinates": [ 47.03, 33.31 ] } },
{ "type": "Feature", "properties": { "station_name": "BAFQ", "station_id": "40820", "station_latitude": 31.62888889, "station_longitude": 55.42083333, "station_altitude": 991.3, "date_min": "2000-01-01T00:00:00", "date_max": "2022-07-12T00:00:00", "state_id": "IR25", "state_name": "Yazd" }, "geometry": { "type": "Point", "coordinates": [ 55.42083333, 31.62888889 ] } },
{ "type": "Feature", "properties": { "station_name": "BAFT", "station_id": "40853", "station_latitude": 29.23333333, "station_longitude": 56.58333333, "station_altitude": 2280.0, "date_min": "2000-01-01T00:00:00", "date_max": "2022-07-12T00:00:00", "state_id": "IR15", "state_name": "Kerman" }, "geometry": { "type": "Point", "coordinates": [ 56.58333333, 29.23333333 ] } },
{ "type": "Feature", "properties": { "station_name": "BAGH KOSAR", "station_id": "18581", "station_latitude": 36.07, "station_longitude": 50.38, "station_altitude": 1365.0, "date_min": "2000-01-01T00:00:00", "date_max": "2022-06-30T00:00:00", "state_id": "IR28", "state_name": "Qazvin" }, "geometry": { "type": "Point", "coordinates": [ 50.38, 36.07 ] } },
{ "type": "Feature", "properties": { "station_name": "BAGHESTAN", "station_id": "18758", "station_latitude": 35.6, "station_longitude": 56.78, "station_altitude": 1242.0, "date_min": "2000-01-01T00:00:00", "date_max": "2022-06-30T00:00:00", "state_id": "IR12", "state_name": "Semnan" }, "geometry": { "type": "Point", "coordinates": [ 56.78, 35.6 ] } },
{ "type": "Feature", "properties": { "station_name": "BAGHMALEK", "station_id": "19478", "station_latitude": 31.53, "station_longitude": 49.88, "station_altitude": 710.0, "date_min": "2000-01-01T00:00:00", "date_max": "2022-07-12T00:00:00", "state_id": "IR10", "state_name": "Khuzestan" }, "geometry": { "type": "Point", "coordinates": [ 49.88, 31.53 ] } },
{ "type": "Feature", "properties": { "station_name": "BAHABAD", "station_id": "19428", "station_latitude": 31.8667, "station_longitude": 56.0167, "station_altitude": 1403.0, "date_min": "2000-01-01T00:00:00", "date_max": "2008-08-31T00:00:00", "state_id": "IR25", "state_name": "Yazd" }, "geometry": { "type": "Point", "coordinates": [ 56.0167, 31.8667 ] } },
{ "type": "Feature", "properties": { "station_name": "BAHABAD", "station_id": "99522", "station_latitude": 31.84111111, "station_longitude": 56.04611111, "station_altitude": 1436.0, "date_min": "2009-01-01T00:00:00", "date_max": "2022-07-12T00:00:00", "state_id": "IR25", "state_name": "Yazd" }, "geometry": { "type": "Point", "coordinates": [ 56.04611111, 31.84111111 ] } },
{ "type": "Feature", "properties": { "station_name": "BAHADORAN", "station_id": "19518", "station_latitude": 31.32, "station_longitude": 54.92, "station_altitude": 1460.0, "date_min": "2000-01-01T00:00:00", "date_max": "2022-07-12T00:00:00", "state_id": "IR25", "state_name": "Yazd" }, "geometry": { "type": "Point", "coordinates": [ 54.92, 31.32 ] } },
{ "type": "Feature", "properties": { "station_name": "BAHAR", "station_id": "18895", "station_latitude": 34.9, "station_longitude": 48.45, "station_altitude": 1743.0, "date_min": "2018-05-28T00:00:00", "date_max": "2022-07-12T00:00:00", "state_id": "IR24", "state_name": "Hamadan" }, "geometry": { "type": "Point", "coordinates": [ 48.45, 34.9 ] } },
{ "type": "Feature", "properties": { "station_name": "BAHARESTAN", "station_id": "18744", "station_latitude": 35.63, "station_longitude": 47.1, "station_altitude": 2070.0, "date_min": "2000-01-01T00:00:00", "date_max": "2022-07-12T00:00:00", "state_id": "IR16", "state_name": "Kordestan" }, "geometry": { "type": "Point", "coordinates": [ 47.1, 35.63 ] } },
{ "type": "Feature", "properties": { "station_name": "BAHOOKALAT", "station_id": "19996", "station_latitude": 25.7, "station_longitude": 61.42, "station_altitude": 120.0, "date_min": "2000-01-01T00:00:00", "date_max": "2022-07-12T00:00:00", "state_id": "IR13", "state_name": "Sistan and Baluchestan" }, "geometry": { "type": "Point", "coordinates": [ 61.42, 25.7 ] } },
{ "type": "Feature", "properties": { "station_name": "BAJESTAN", "station_id": "18966", "station_latitude": 34.5167, "station_longitude": 58.1831, "station_altitude": 1260.0, "date_min": "2000-01-01T00:00:00", "date_max": "2010-12-31T00:00:00", "state_id": "IR30", "state_name": "Razavi Khorasan" }, "geometry": { "type": "Point", "coordinates": [ 58.1831, 34.5167 ] } },
{ "type": "Feature", "properties": { "station_name": "BAJESTAN", "station_id": "99436", "station_latitude": 34.5, "station_longitude": 58.1592, "station_altitude": 1293.0, "date_min": "2015-12-23T00:00:00", "date_max": "2022-07-12T00:00:00", "state_id": "IR30", "state_name": "Razavi Khorasan" }, "geometry": { "type": "Point", "coordinates": [ 58.1592, 34.5 ] } },
{ "type": "Feature", "properties": { "station_name": "BAJGAH", "station_id": "19686", "station_latitude": 29.73, "station_longitude": 52.59, "station_altitude": 1791.0, "date_min": "2000-01-01T00:00:00", "date_max": "2022-07-12T00:00:00", "state_id": "IR14", "state_name": "Fars" }, "geometry": { "type": "Point", "coordinates": [ 52.59, 29.73 ] } },
{ "type": "Feature", "properties": { "station_name": "BAKHEZR", "station_id": "18890", "station_latitude": 35.0, "station_longitude": 60.52, "station_altitude": 1281.0, "date_min": "2018-07-03T00:00:00", "date_max": "2022-07-12T00:00:00", "state_id": "IR30", "state_name": "Razavi Khorasan" }, "geometry": { "type": "Point", "coordinates": [ 60.52, 35.0 ] } },
{ "type": "Feature", "properties": { "station_name": "BALADEH", "station_id": "99357", "station_latitude": 36.2, "station_longitude": 51.8, "station_altitude": 2120.0, "date_min": "2006-03-01T00:00:00", "date_max": "2022-07-12T00:00:00", "state_id": "IR21", "state_name": "Mazandaran" }, "geometry": { "type": "Point", "coordinates": [ 51.8, 36.2 ] } },
{ "type": "Feature", "properties": { "station_name": "BALAN", "station_id": "19243", "station_latitude": 32.85, "station_longitude": 52.73, "station_altitude": 2110.0, "date_min": "2000-01-01T00:00:00", "date_max": "2022-05-31T00:00:00", "state_id": "IR04", "state_name": "Esfahan" }, "geometry": { "type": "Point", "coordinates": [ 52.73, 32.85 ] } },
{ "type": "Feature", "properties": { "station_name": "BAM", "station_id": "40854", "station_latitude": 29.1, "station_longitude": 58.35, "station_altitude": 1067.0, "date_min": "2000-01-01T00:00:00", "date_max": "2022-07-12T00:00:00", "state_id": "IR15", "state_name": "Kerman" }, "geometry": { "type": "Point", "coordinates": [ 58.35, 29.1 ] } },
{ "type": "Feature", "properties": { "station_name": "BAM (AIRPORT)", "station_id": "88179", "station_latitude": 29.07861111, "station_longitude": 58.45194444, "station_altitude": 940.0, "date_min": "2022-06-23T00:00:00", "date_max": "2022-07-12T00:00:00", "state_id": "IR15", "state_name": "Kerman" }, "geometry": { "type": "Point", "coordinates": [ 58.45194444, 29.07861111 ] } },
{ "type": "Feature", "properties": { "station_name": "BAMPOOR", "station_id": "19947", "station_latitude": 27.2, "station_longitude": 60.45, "station_altitude": 515.0, "date_min": "2000-01-01T00:00:00", "date_max": "2022-02-28T00:00:00", "state_id": "IR13", "state_name": "Sistan and Baluchestan" }, "geometry": { "type": "Point", "coordinates": [ 60.45, 27.2 ] } },
{ "type": "Feature", "properties": { "station_name": "BAND PAY SHAYADEH", "station_id": "18488", "station_latitude": 36.317, "station_longitude": 52.553, "station_altitude": 213.0, "date_min": "2022-02-27T00:00:00", "date_max": "2022-07-12T00:00:00", "state_id": "IR21", "state_name": "Mazandaran" }, "geometry": { "type": "Point", "coordinates": [ 52.553, 36.317 ] } },
{ "type": "Feature", "properties": { "station_name": "BANDAN", "station_id": "19516", "station_latitude": 31.38, "station_longitude": 60.73, "station_altitude": 726.0, "date_min": "2020-10-31T00:00:00", "date_max": "2022-07-12T00:00:00", "state_id": "IR29", "state_name": "South Khorasan" }, "geometry": { "type": "Point", "coordinates": [ 60.73, 31.38 ] } },
{ "type": "Feature", "properties": { "station_name": "BANDAR TORKAMAN", "station_id": "18313", "station_latitude": 36.8831, "station_longitude": 54.0497, "station_altitude": -20.0, "date_min": "2000-01-01T00:00:00", "date_max": "2006-12-31T00:00:00", "state_id": "IR27", "state_name": "Golestan" }, "geometry": { "type": "Point", "coordinates": [ 54.0497, 36.8831 ] } },
{ "type": "Feature", "properties": { "station_name": "BANDAR-E-AMIRABAD", "station_id": "99306", "station_latitude": 36.85611111, "station_longitude": 53.38638889, "station_altitude": -20.0, "date_min": "2005-01-01T00:00:00", "date_max": "2022-07-12T00:00:00", "state_id": "IR21", "state_name": "Mazandaran" }, "geometry": { "type": "Point", "coordinates": [ 53.38638889, 36.85611111 ] } },
{ "type": "Feature", "properties": { "station_name": "BANDAR-E-ANZALI", "station_id": "40718", "station_latitude": 37.47972222, "station_longitude": 49.4575, "station_altitude": -23.6, "date_min": "2000-01-01T00:00:00", "date_max": "2022-07-12T00:00:00", "state_id": "IR19", "state_name": "Gilan" }, "geometry": { "type": "Point", "coordinates": [ 49.4575, 37.47972222 ] } },
{ "type": "Feature", "properties": { "station_name": "BANDAR-E-DAYYER", "station_id": "40872", "station_latitude": 27.83333333, "station_longitude": 51.93333333, "station_altitude": 4.0, "date_min": "2000-01-01T00:00:00", "date_max": "2022-07-12T00:00:00", "state_id": "IR06", "state_name": "Bushehr" }, "geometry": { "type": "Point", "coordinates": [ 51.93333333, 27.83333333 ] } },
{ "type": "Feature", "properties": { "station_name": "BANDAR-E-DEYLAM", "station_id": "40846", "station_latitude": 30.05027778, "station_longitude": 50.16666667, "station_altitude": 3.0, "date_min": "2001-12-01T00:00:00", "date_max": "2022-07-12T00:00:00", "state_id": "IR06", "state_name": "Bushehr" }, "geometry": { "type": "Point", "coordinates": [ 50.16666667, 30.05027778 ] } },
{ "type": "Feature", "properties": { "station_name": "BANDAR-E-GAZ", "station_id": "99304", "station_latitude": 36.76666667, "station_longitude": 53.95, "station_altitude": -14.0, "date_min": "2013-01-01T00:00:00", "date_max": "2022-07-12T00:00:00", "state_id": "IR27", "state_name": "Golestan" }, "geometry": { "type": "Point", "coordinates": [ 53.95, 36.76666667 ] } },
{ "type": "Feature", "properties": { "station_name": "BANDAR-E-GENAVEH", "station_id": "99594", "station_latitude": 29.5592, "station_longitude": 50.5081, "station_altitude": 4.3, "date_min": "2017-04-10T00:00:00", "date_max": "2022-07-12T00:00:00", "state_id": "IR06", "state_name": "Bushehr" }, "geometry": { "type": "Point", "coordinates": [ 50.5081, 29.5592 ] } },
{ "type": "Feature", "properties": { "station_name": "BANDAR-E-KHAMIR", "station_id": "99674", "station_latitude": 26.95166667, "station_longitude": 55.57083333, "station_altitude": 27.0, "date_min": "2011-02-01T00:00:00", "date_max": "2022-07-12T00:00:00", "state_id": "IR23", "state_name": "Hormozgan" }, "geometry": { "type": "Point", "coordinates": [ 55.57083333, 26.95166667 ] } },
{ "type": "Feature", "properties": { "station_name": "BANDAR-E-LENGEH", "station_id": "40883", "station_latitude": 26.52833333, "station_longitude": 54.82833333, "station_altitude": 22.7, "date_min": "2000-01-01T00:00:00", "date_max": "2022-07-12T00:00:00", "state_id": "IR23", "state_name": "Hormozgan" }, "geometry": { "type": "Point", "coordinates": [ 54.82833333, 26.52833333 ] } },
{ "type": "Feature", "properties": { "station_name": "BANDAR-E-LENGEH (COASTAL)", "station_id": "99688", "station_latitude": 26.56527778, "station_longitude": 54.89722222, "station_altitude": 6.4, "date_min": "2004-01-01T00:00:00", "date_max": "2008-06-30T00:00:00", "state_id": "IR23", "state_name": "Hormozgan" }, "geometry": { "type": "Point", "coordinates": [ 54.89722222, 26.56527778 ] } },
{ "type": "Feature", "properties": { "station_name": "BANDAR-E-MAHSHAHR", "station_id": "40832", "station_latitude": 30.54555556, "station_longitude": 49.15916667, "station_altitude": 6.2, "date_min": "2000-01-01T00:00:00", "date_max": "2022-07-12T00:00:00", "state_id": "IR10", "state_name": "Khuzestan" }, "geometry": { "type": "Point", "coordinates": [ 49.15916667, 30.54555556 ] } },
{ "type": "Feature", "properties": { "station_name": "BANDAR-E-SIRIK", "station_id": "99686", "station_latitude": 26.5, "station_longitude": 57.08333333, "station_altitude": 2.0, "date_min": "2022-06-23T00:00:00", "date_max": "2022-07-12T00:00:00", "state_id": "IR23", "state_name": "Hormozgan" }, "geometry": { "type": "Point", "coordinates": [ 57.08333333, 26.5 ] } },
{ "type": "Feature", "properties": { "station_name": "BANDAR-E-TORKAMAN", "station_id": "99242", "station_latitude": 36.9, "station_longitude": 54.06666667, "station_altitude": 0.0, "date_min": "2007-07-01T00:00:00", "date_max": "2022-07-12T00:00:00", "state_id": "IR27", "state_name": "Golestan" }, "geometry": { "type": "Point", "coordinates": [ 54.06666667, 36.9 ] } },
{ "type": "Feature", "properties": { "station_name": "BANDARABBAS", "station_id": "40875", "station_latitude": 27.2142, "station_longitude": 56.3728, "station_altitude": 9.8, "date_min": "2000-01-01T00:00:00", "date_max": "2022-07-12T00:00:00", "state_id": "IR23", "state_name": "Hormozgan" }, "geometry": { "type": "Point", "coordinates": [ 56.3728, 27.2142 ] } },
{ "type": "Feature", "properties": { "station_name": "BANEH", "station_id": "99280", "station_latitude": 36.00666667, "station_longitude": 45.89555556, "station_altitude": 1600.0, "date_min": "2000-01-01T00:00:00", "date_max": "2022-07-12T00:00:00", "state_id": "IR16", "state_name": "Kordestan" }, "geometry": { "type": "Point", "coordinates": [ 45.89555556, 36.00666667 ] } },
{ "type": "Feature", "properties": { "station_name": "BARDESKAN", "station_id": "99356", "station_latitude": 35.26666667, "station_longitude": 57.96666667, "station_altitude": 985.0, "date_min": "2012-01-01T00:00:00", "date_max": "2022-07-12T00:00:00", "state_id": "IR30", "state_name": "Razavi Khorasan" }, "geometry": { "type": "Point", "coordinates": [ 57.96666667, 35.26666667 ] } },
{ "type": "Feature", "properties": { "station_name": "BARDIS", "station_id": "19668", "station_latitude": 29.95, "station_longitude": 56.57, "station_altitude": 2050.0, "date_min": "2000-01-01T00:00:00", "date_max": "2022-07-12T00:00:00", "state_id": "IR15", "state_name": "Kerman" }, "geometry": { "type": "Point", "coordinates": [ 56.57, 29.95 ] } },
{ "type": "Feature", "properties": { "station_name": "BARDSIR", "station_id": "99576", "station_latitude": 29.94, "station_longitude": 56.57, "station_altitude": 2050.0, "date_min": "2019-09-30T00:00:00", "date_max": "2022-07-12T00:00:00", "state_id": "IR15", "state_name": "Kerman" }, "geometry": { "type": "Point", "coordinates": [ 56.57, 29.94 ] } },
{ "type": "Feature", "properties": { "station_name": "BAREKAT", "station_id": "18622", "station_latitude": 35.919444, "station_longitude": 50.855556, "station_altitude": 1455.0, "date_min": "2020-11-21T00:00:00", "date_max": "2022-07-12T00:00:00", "state_id": "IR09", "state_name": "Alborz" }, "geometry": { "type": "Point", "coordinates": [ 50.855556, 35.919444 ] } },
{ "type": "Feature", "properties": { "station_name": "BARI", "station_id": "18087", "station_latitude": 37.03, "station_longitude": 45.22, "station_altitude": 1347.0, "date_min": "2007-01-01T00:00:00", "date_max": "2022-07-12T00:00:00", "state_id": "IR02", "state_name": "West Azarbaijan" }, "geometry": { "type": "Point", "coordinates": [ 45.22, 37.03 ] } },
{ "type": "Feature", "properties": { "station_name": "BARKHAN SOU", "station_id": "19183", "station_latitude": 32.7, "station_longitude": 51.68, "station_altitude": 2102.0, "date_min": "2013-01-01T00:00:00", "date_max": "2018-11-30T00:00:00", "state_id": "IR04", "state_name": "Esfahan" }, "geometry": { "type": "Point", "coordinates": [ 51.68, 32.7 ] } },
{ "type": "Feature", "properties": { "station_name": "BAROOTAGHACHI", "station_id": "18407", "station_latitude": 36.5667, "station_longitude": 48.3333, "station_altitude": 2010.0, "date_min": "2000-01-01T00:00:00", "date_max": "2006-06-30T00:00:00", "state_id": "IR11", "state_name": "Zanjan" }, "geometry": { "type": "Point", "coordinates": [ 48.3333, 36.5667 ] } },
{ "type": "Feature", "properties": { "station_name": "BARZOK", "station_id": "19100", "station_latitude": 33.8, "station_longitude": 51.22, "station_altitude": 2200.0, "date_min": "2009-01-01T00:00:00", "date_max": "2022-07-12T00:00:00", "state_id": "IR04", "state_name": "Esfahan" }, "geometry": { "type": "Point", "coordinates": [ 51.22, 33.8 ] } },
{ "type": "Feature", "properties": { "station_name": "BASH GHESHLAGH", "station_id": "18589", "station_latitude": 36.04, "station_longitude": 48.08, "station_altitude": 1580.0, "date_min": "2019-11-10T00:00:00", "date_max": "2022-07-12T00:00:00", "state_id": "IR11", "state_name": "Zanjan" }, "geometry": { "type": "Point", "coordinates": [ 48.08, 36.04 ] } },
{ "type": "Feature", "properties": { "station_name": "BASTAK", "station_id": "99666", "station_latitude": 27.21666667, "station_longitude": 54.35, "station_altitude": 382.0, "date_min": "2012-03-04T00:00:00", "date_max": "2022-07-12T00:00:00", "state_id": "IR23", "state_name": "Hormozgan" }, "geometry": { "type": "Point", "coordinates": [ 54.35, 27.21666667 ] } },
{ "type": "Feature", "properties": { "station_name": "BASTAM", "station_id": "18437", "station_latitude": 36.48, "station_longitude": 55.0, "station_altitude": 1366.0, "date_min": "2000-01-01T00:00:00", "date_max": "2022-05-31T00:00:00", "state_id": "IR12", "state_name": "Semnan" }, "geometry": { "type": "Point", "coordinates": [ 55.0, 36.48 ] } },
{ "type": "Feature", "properties": { "station_name": "BAVANAT", "station_id": "99561", "station_latitude": 30.47583333, "station_longitude": 53.60944444, "station_altitude": 2232.0, "date_min": "2004-01-01T00:00:00", "date_max": "2022-07-12T00:00:00", "state_id": "IR14", "state_name": "Fars" }, "geometry": { "type": "Point", "coordinates": [ 53.60944444, 30.47583333 ] } },
{ "type": "Feature", "properties": { "station_name": "BAYAZEH", "station_id": "19176", "station_latitude": 33.3374, "station_longitude": 55.0989, "station_altitude": 916.0, "date_min": "2000-01-01T00:00:00", "date_max": "2022-06-30T00:00:00", "state_id": "IR25", "state_name": "Yazd" }, "geometry": { "type": "Point", "coordinates": [ 55.0989, 33.3374 ] } },
{ "type": "Feature", "properties": { "station_name": "BAZMAN", "station_id": "99649", "station_latitude": 27.85, "station_longitude": 60.183, "station_altitude": 957.0, "date_min": "2016-11-27T00:00:00", "date_max": "2022-07-12T00:00:00", "state_id": "IR13", "state_name": "Sistan and Baluchestan" }, "geometry": { "type": "Point", "coordinates": [ 60.183, 27.85 ] } },
{ "type": "Feature", "properties": { "station_name": "BEHBAHAN", "station_id": "40834", "station_latitude": 30.60555556, "station_longitude": 50.21722222, "station_altitude": 313.0, "date_min": "2000-01-01T00:00:00", "date_max": "2022-07-12T00:00:00", "state_id": "IR10", "state_name": "Khuzestan" }, "geometry": { "type": "Point", "coordinates": [ 50.21722222, 30.60555556 ] } },
{ "type": "Feature", "properties": { "station_name": "BEHREGAN", "station_id": "88172", "station_latitude": 29.83805556, "station_longitude": 50.27166667, "station_altitude": 1432.0, "date_min": "2020-10-31T00:00:00", "date_max": "2022-07-12T00:00:00", "state_id": "IR06", "state_name": "Bushehr" }, "geometry": { "type": "Point", "coordinates": [ 50.27166667, 29.83805556 ] } },
{ "type": "Feature", "properties": { "station_name": "BEN", "station_id": "19245", "station_latitude": 32.54, "station_longitude": 50.74, "station_altitude": 2228.0, "date_min": "2018-05-26T00:00:00", "date_max": "2022-07-12T00:00:00", "state_id": "IR08", "state_name": "Chahar Mahall and Bakhtiari" }, "geometry": { "type": "Point", "coordinates": [ 50.74, 32.54 ] } },
{ "type": "Feature", "properties": { "station_name": "BIDEH", "station_id": "19563", "station_latitude": 30.934418, "station_longitude": 51.686907, "station_altitude": 2307.0, "date_min": "2021-10-28T00:00:00", "date_max": "2022-07-12T00:00:00", "state_id": "IR04", "state_name": "Esfahan" }, "geometry": { "type": "Point", "coordinates": [ 51.686907, 30.934418 ] } },
{ "type": "Feature", "properties": { "station_name": "BIJAR", "station_id": "40748", "station_latitude": 35.88694444, "station_longitude": 47.62111111, "station_altitude": 1883.0, "date_min": "2000-01-01T00:00:00", "date_max": "2022-07-12T00:00:00", "state_id": "IR16", "state_name": "Kordestan" }, "geometry": { "type": "Point", "coordinates": [ 47.62111111, 35.88694444 ] } },
{ "type": "Feature", "properties": { "station_name": "BILEHSOWAR", "station_id": "99202", "station_latitude": 39.365, "station_longitude": 48.31916667, "station_altitude": 101.4, "date_min": "2004-01-01T00:00:00", "date_max": "2022-07-12T00:00:00", "state_id": "IR03", "state_name": "Ardebil" }, "geometry": { "type": "Point", "coordinates": [ 48.31916667, 39.365 ] } },
{ "type": "Feature", "properties": { "station_name": "BIRJAND", "station_id": "40809", "station_latitude": 32.8906, "station_longitude": 59.2831, "station_altitude": 1491.0, "date_min": "2000-01-01T00:00:00", "date_max": "2022-07-12T00:00:00", "state_id": "IR29", "state_name": "South Khorasan" }, "geometry": { "type": "Point", "coordinates": [ 59.2831, 32.8906 ] } },
{ "type": "Feature", "properties": { "station_name": "BIYARJOMAND", "station_id": "40742", "station_latitude": 36.0856, "station_longitude": 55.8053, "station_altitude": 1099.3, "date_min": "2000-01-01T00:00:00", "date_max": "2022-07-12T00:00:00", "state_id": "IR12", "state_name": "Semnan" }, "geometry": { "type": "Point", "coordinates": [ 55.8053, 36.0856 ] } },
{ "type": "Feature", "properties": { "station_name": "BLAVETAREH", "station_id": "19123", "station_latitude": 33.68, "station_longitude": 46.8, "station_altitude": 929.0, "date_min": "2001-02-01T00:00:00", "date_max": "2022-06-30T00:00:00", "state_id": "IR05", "state_name": "Ilam" }, "geometry": { "type": "Point", "coordinates": [ 46.8, 33.68 ] } },
{ "type": "Feature", "properties": { "station_name": "BOJNOORD", "station_id": "18166", "station_latitude": 37.47, "station_longitude": 57.32, "station_altitude": 1101.0, "date_min": "2017-01-01T00:00:00", "date_max": "2022-07-12T00:00:00", "state_id": "IR31", "state_name": "North Khorasan" }, "geometry": { "type": "Point", "coordinates": [ 57.32, 37.47 ] } },
{ "type": "Feature", "properties": { "station_name": "BOJNURD", "station_id": "40723", "station_latitude": 37.48722222, "station_longitude": 57.30333333, "station_altitude": 1065.0, "date_min": "2000-01-01T00:00:00", "date_max": "2022-07-12T00:00:00", "state_id": "IR31", "state_name": "North Khorasan" }, "geometry": { "type": "Point", "coordinates": [ 57.30333333, 37.48722222 ] } },
{ "type": "Feature", "properties": { "station_name": "BOLDAJI", "station_id": "19418", "station_latitude": 31.86, "station_longitude": 51.15, "station_altitude": 2247.0, "date_min": "2003-01-01T00:00:00", "date_max": "2019-12-31T00:00:00", "state_id": "IR08", "state_name": "Chahar Mahall and Bakhtiari" }, "geometry": { "type": "Point", "coordinates": [ 51.15, 31.86 ] } },
{ "type": "Feature", "properties": { "station_name": "BOLDAJI", "station_id": "99523", "station_latitude": 31.93, "station_longitude": 51.06, "station_altitude": 2432.0, "date_min": "2018-10-23T00:00:00", "date_max": "2022-07-12T00:00:00", "state_id": "IR08", "state_name": "Chahar Mahall and Bakhtiari" }, "geometry": { "type": "Point", "coordinates": [ 51.06, 31.93 ] } },
{ "type": "Feature", "properties": { "station_name": "BONAB", "station_id": "99239", "station_latitude": 37.37027778, "station_longitude": 46.05166667, "station_altitude": 1281.0, "date_min": "2000-01-01T00:00:00", "date_max": "2022-07-12T00:00:00", "state_id": "IR01", "state_name": "East Azarbaijan" }, "geometry": { "type": "Point", "coordinates": [ 46.05166667, 37.37027778 ] } },
{ "type": "Feature", "properties": { "station_name": "BORAZJAN", "station_id": "19753", "station_latitude": 29.2667, "station_longitude": 51.2167, "station_altitude": 65.0, "date_min": "2000-01-01T00:00:00", "date_max": "2007-10-31T00:00:00", "state_id": "IR06", "state_name": "Bushehr" }, "geometry": { "type": "Point", "coordinates": [ 51.2167, 29.2667 ] } },
{ "type": "Feature", "properties": { "station_name": "BORAZJAN", "station_id": "99600", "station_latitude": 29.25, "station_longitude": 51.16666667, "station_altitude": 89.9, "date_min": "2006-03-01T00:00:00", "date_max": "2022-07-12T00:00:00", "state_id": "IR06", "state_name": "Bushehr" }, "geometry": { "type": "Point", "coordinates": [ 51.16666667, 29.25 ] } },
{ "type": "Feature", "properties": { "station_name": "BORAZJAN UNIVERSITY AGRICULTUIRE", "station_id": "19779", "station_latitude": 29.13, "station_longitude": 51.14, "station_altitude": 92.0, "date_min": "2022-06-23T00:00:00", "date_max": "2022-07-12T00:00:00", "state_id": "IR06", "state_name": "Bushehr" }, "geometry": { "type": "Point", "coordinates": [ 51.14, 29.13 ] } },
{ "type": "Feature", "properties": { "station_name": "BORDEKHOON", "station_id": "19880", "station_latitude": 28.03, "station_longitude": 51.45, "station_altitude": 12.0, "date_min": "2022-06-23T00:00:00", "date_max": "2022-07-12T00:00:00", "state_id": "IR06", "state_name": "Bushehr" }, "geometry": { "type": "Point", "coordinates": [ 51.45, 28.03 ] } },
{ "type": "Feature", "properties": { "station_name": "BORDEKHOON", "station_id": "19892", "station_latitude": 28.8333, "station_longitude": 51.4833, "station_altitude": 28.0, "date_min": "2001-04-01T00:00:00", "date_max": "2003-12-31T00:00:00", "state_id": "IR06", "state_name": "Bushehr" }, "geometry": { "type": "Point", "coordinates": [ 51.4833, 28.8333 ] } },
{ "type": "Feature", "properties": { "station_name": "BOROUJERD (PADEGAN)", "station_id": "19070", "station_latitude": 33.9, "station_longitude": 48.6333, "station_altitude": 1931.0, "date_min": "2000-01-01T00:00:00", "date_max": "2000-05-31T00:00:00", "state_id": "IR20", "state_name": "Lorestan" }, "geometry": { "type": "Point", "coordinates": [ 48.6333, 33.9 ] } },
{ "type": "Feature", "properties": { "station_name": "BORUJEN", "station_id": "99459", "station_latitude": 31.97888889, "station_longitude": 51.29888889, "station_altitude": 2260.0, "date_min": "2000-01-01T00:00:00", "date_max": "2022-07-12T00:00:00", "state_id": "IR08", "state_name": "Chahar Mahall and Bakhtiari" }, "geometry": { "type": "Point", "coordinates": [ 51.29888889, 31.97888889 ] } },
{ "type": "Feature", "properties": { "station_name": "BORUJERD", "station_id": "40774", "station_latitude": 33.915, "station_longitude": 48.7575, "station_altitude": 1629.0, "date_min": "2000-01-01T00:00:00", "date_max": "2022-07-12T00:00:00", "state_id": "IR20", "state_name": "Lorestan" }, "geometry": { "type": "Point", "coordinates": [ 48.7575, 33.915 ] } },
{ "type": "Feature", "properties": { "station_name": "BORZOL ABAD", "station_id": "18203", "station_latitude": 37.38, "station_longitude": 57.92, "station_altitude": 1187.0, "date_min": "2013-01-01T00:00:00", "date_max": "2022-07-12T00:00:00", "state_id": "IR31", "state_name": "North Khorasan" }, "geometry": { "type": "Point", "coordinates": [ 57.92, 37.38 ] } },
{ "type": "Feature", "properties": { "station_name": "BOSHRUYEH", "station_id": "99407", "station_latitude": 33.86666667, "station_longitude": 57.43333333, "station_altitude": 879.0, "date_min": "2000-01-01T00:00:00", "date_max": "2022-07-12T00:00:00", "state_id": "IR30", "state_name": "Razavi Khorasan" }, "geometry": { "type": "Point", "coordinates": [ 57.43333333, 33.86666667 ] } },
{ "type": "Feature", "properties": { "station_name": "BOSTAN", "station_id": "40810", "station_latitude": 31.70777778, "station_longitude": 48.01, "station_altitude": 7.8, "date_min": "2000-01-01T00:00:00", "date_max": "2022-07-12T00:00:00", "state_id": "IR10", "state_name": "Khuzestan" }, "geometry": { "type": "Point", "coordinates": [ 48.01, 31.70777778 ] } },
{ "type": "Feature", "properties": { "station_name": "BOSTANABAD", "station_id": "99248", "station_latitude": 37.85194444, "station_longitude": 46.84388889, "station_altitude": 1736.0, "date_min": "2006-01-01T00:00:00", "date_max": "2022-07-12T00:00:00", "state_id": "IR01", "state_name": "East Azarbaijan" }, "geometry": { "type": "Point", "coordinates": [ 46.84388889, 37.85194444 ] } },
{ "type": "Feature", "properties": { "station_name": "BOYIN-MIYANDASHT", "station_id": "19208", "station_latitude": 33.0833, "station_longitude": 50.1667, "station_altitude": 2412.0, "date_min": "2019-06-17T00:00:00", "date_max": "2022-07-12T00:00:00", "state_id": "IR04", "state_name": "Esfahan" }, "geometry": { "type": "Point", "coordinates": [ 50.1667, 33.0833 ] } },
{ "type": "Feature", "properties": { "station_name": "BOYIN-ZAHRA", "station_id": "18685", "station_latitude": 35.7667, "station_longitude": 50.0667, "station_altitude": 1282.0, "date_min": "2003-01-01T00:00:00", "date_max": "2006-11-30T00:00:00", "state_id": "IR28", "state_name": "Qazvin" }, "geometry": { "type": "Point", "coordinates": [ 50.0667, 35.7667 ] } },
{ "type": "Feature", "properties": { "station_name": "BUINZAHRA", "station_id": "99327", "station_latitude": 35.77361111, "station_longitude": 50.06722222, "station_altitude": 1282.0, "date_min": "2006-12-01T00:00:00", "date_max": "2022-07-12T00:00:00", "state_id": "IR28", "state_name": "Qazvin" }, "geometry": { "type": "Point", "coordinates": [ 50.06722222, 35.77361111 ] } },
{ "type": "Feature", "properties": { "station_name": "BUKAN", "station_id": "99332", "station_latitude": 36.52666667, "station_longitude": 46.23166667, "station_altitude": 1386.1, "date_min": "2005-01-01T00:00:00", "date_max": "2022-07-12T00:00:00", "state_id": "IR02", "state_name": "West Azarbaijan" }, "geometry": { "type": "Point", "coordinates": [ 46.23166667, 36.52666667 ] } },
{ "type": "Feature", "properties": { "station_name": "BUSHEHR (AIRPORT)", "station_id": "40858", "station_latitude": 28.9631, "station_longitude": 50.8192, "station_altitude": 6.0, "date_min": "2000-01-01T00:00:00", "date_max": "2022-07-12T00:00:00", "state_id": "IR06", "state_name": "Bushehr" }, "geometry": { "type": "Point", "coordinates": [ 50.8192, 28.9631 ] } },
{ "type": "Feature", "properties": { "station_name": "BUSHEHR (COASTAL)", "station_id": "40857", "station_latitude": 28.90388889, "station_longitude": 50.82111111, "station_altitude": 5.0, "date_min": "2000-01-01T00:00:00", "date_max": "2022-07-12T00:00:00", "state_id": "IR06", "state_name": "Bushehr" }, "geometry": { "type": "Point", "coordinates": [ 50.82111111, 28.90388889 ] } },
{ "type": "Feature", "properties": { "station_name": "CHADEGAN", "station_id": "99452", "station_latitude": 32.75, "station_longitude": 50.6497, "station_altitude": 2175.0, "date_min": "2015-07-22T00:00:00", "date_max": "2022-07-12T00:00:00", "state_id": "IR04", "state_name": "Esfahan" }, "geometry": { "type": "Point", "coordinates": [ 50.6497, 32.75 ] } },
{ "type": "Feature", "properties": { "station_name": "CHADEGAN-FARIDAN", "station_id": "19258", "station_latitude": 32.7667, "station_longitude": 50.6167, "station_altitude": 2156.0, "date_min": "2000-01-01T00:00:00", "date_max": "2015-10-31T00:00:00", "state_id": "IR04", "state_name": "Esfahan" }, "geometry": { "type": "Point", "coordinates": [ 50.6167, 32.7667 ] } },
{ "type": "Feature", "properties": { "station_name": "CHAHBAHAR", "station_id": "40898", "station_latitude": 25.2806, "station_longitude": 60.6506, "station_altitude": 8.0, "date_min": "2000-01-01T00:00:00", "date_max": "2022-07-12T00:00:00", "state_id": "IR13", "state_name": "Sistan and Baluchestan" }, "geometry": { "type": "Point", "coordinates": [ 60.6506, 25.2806 ] } },
{ "type": "Feature", "properties": { "station_name": "CHAHKOOTAH (TASBIT E SHEN)", "station_id": "19799", "station_latitude": 29.03, "station_longitude": 51.09, "station_altitude": 30.0, "date_min": "2000-01-01T00:00:00", "date_max": "2022-07-12T00:00:00", "state_id": "IR06", "state_name": "Bushehr" }, "geometry": { "type": "Point", "coordinates": [ 51.09, 29.03 ] } },
{ "type": "Feature", "properties": { "station_name": "CHALDORAN", "station_id": "99209", "station_latitude": 39.06027778, "station_longitude": 44.40666667, "station_altitude": 1888.5, "date_min": "2004-01-01T00:00:00", "date_max": "2022-07-12T00:00:00", "state_id": "IR02", "state_name": "West Azarbaijan" }, "geometry": { "type": "Point", "coordinates": [ 44.40666667, 39.06027778 ] } },
{ "type": "Feature", "properties": { "station_name": "CHAMESTAN", "station_id": "18430", "station_latitude": 36.48, "station_longitude": 52.02, "station_altitude": 73.0, "date_min": "2012-01-01T00:00:00", "date_max": "2022-06-30T00:00:00", "state_id": "IR21", "state_name": "Mazandaran" }, "geometry": { "type": "Point", "coordinates": [ 52.02, 36.48 ] } },
{ "type": "Feature", "properties": { "station_name": "CHANDAB PAKDASHT", "station_id": "18801", "station_latitude": 35.4167, "station_longitude": 51.9331, "station_altitude": 1177.0, "date_min": "2004-01-01T00:00:00", "date_max": "2012-12-31T00:00:00", "state_id": "IR12", "state_name": "Semnan" }, "geometry": { "type": "Point", "coordinates": [ 51.9331, 35.4167 ] } },
{ "type": "Feature", "properties": { "station_name": "CHAROYMAQ", "station_id": "99283", "station_latitude": 37.1331, "station_longitude": 46.9667, "station_altitude": 1302.0, "date_min": "2015-12-16T00:00:00", "date_max": "2022-07-12T00:00:00", "state_id": "IR01", "state_name": "East Azarbaijan" }, "geometry": { "type": "Point", "coordinates": [ 46.9667, 37.1331 ] } },
{ "type": "Feature", "properties": { "station_name": "CHAVARZAGH", "station_id": "18285", "station_latitude": 36.99, "station_longitude": 48.78, "station_altitude": 481.0, "date_min": "2019-05-06T00:00:00", "date_max": "2022-07-12T00:00:00", "state_id": "IR11", "state_name": "Zanjan" }, "geometry": { "type": "Point", "coordinates": [ 48.78, 36.99 ] } },
{ "type": "Feature", "properties": { "station_name": "CHDOORMALU", "station_id": "19344", "station_latitude": 32.31, "station_longitude": 55.52, "station_altitude": 1374.0, "date_min": "2000-01-01T00:00:00", "date_max": "2022-07-12T00:00:00", "state_id": "IR25", "state_name": "Yazd" }, "geometry": { "type": "Point", "coordinates": [ 55.52, 32.31 ] } },
{ "type": "Feature", "properties": { "station_name": "CHEHEL-DOKHTAR", "station_id": "18357", "station_latitude": 36.7333, "station_longitude": 55.3, "station_altitude": 1520.0, "date_min": "2000-01-01T00:00:00", "date_max": "2005-06-30T00:00:00", "state_id": "IR12", "state_name": "Semnan" }, "geometry": { "type": "Point", "coordinates": [ 55.3, 36.7333 ] } },
{ "type": "Feature", "properties": { "station_name": "CHESHME BONAB", "station_id": "19622", "station_latitude": 30.27, "station_longitude": 53.24, "station_altitude": 1929.0, "date_min": "2000-01-01T00:00:00", "date_max": "2022-07-12T00:00:00", "state_id": "IR14", "state_name": "Fars" }, "geometry": { "type": "Point", "coordinates": [ 53.24, 30.27 ] } },
{ "type": "Feature", "properties": { "station_name": "CHESHMEH-ZIARATGAH", "station_id": "19740", "station_latitude": 29.45, "station_longitude": 60.4833, "station_altitude": 1795.0, "date_min": "2012-01-01T00:00:00", "date_max": "2014-02-28T00:00:00", "state_id": "IR13", "state_name": "Sistan and Baluchestan" }, "geometry": { "type": "Point", "coordinates": [ 60.4833, 29.45 ] } },
{ "type": "Feature", "properties": { "station_name": "CHESKIN", "station_id": "18700", "station_latitude": 35.75, "station_longitude": 49.8667, "station_altitude": 1323.0, "date_min": "2007-01-01T00:00:00", "date_max": "2014-10-01T00:00:00", "state_id": "IR28", "state_name": "Qazvin" }, "geometry": { "type": "Point", "coordinates": [ 49.8667, 35.75 ] } },
{ "type": "Feature", "properties": { "station_name": "CHITGAR", "station_id": "99320", "station_latitude": 35.73333333, "station_longitude": 51.16666667, "station_altitude": 1305.0, "date_min": "2000-01-01T00:00:00", "date_max": "2022-07-12T00:00:00", "state_id": "IR07", "state_name": "Tehran" }, "geometry": { "type": "Point", "coordinates": [ 51.16666667, 35.73333333 ] } },
{ "type": "Feature", "properties": { "station_name": "CHUPANAN", "station_id": "99473", "station_latitude": 33.61111111, "station_longitude": 54.37833333, "station_altitude": 896.3, "date_min": "2006-09-01T00:00:00", "date_max": "2022-07-12T00:00:00", "state_id": "IR04", "state_name": "Esfahan" }, "geometry": { "type": "Point", "coordinates": [ 54.37833333, 33.61111111 ] } },
{ "type": "Feature", "properties": { "station_name": "CICHALDIZIN", "station_id": "18592", "station_latitude": 36.03, "station_longitude": 51.43, "station_altitude": 3328.0, "date_min": "2018-04-29T00:00:00", "date_max": "2022-07-12T00:00:00", "state_id": "IR07", "state_name": "Tehran" }, "geometry": { "type": "Point", "coordinates": [ 51.43, 36.03 ] } },
{ "type": "Feature", "properties": { "station_name": "DAHAGHAN", "station_id": "18162", "station_latitude": 31.93, "station_longitude": 51.64, "station_altitude": 2060.0, "date_min": "2021-12-29T00:00:00", "date_max": "2022-07-12T00:00:00", "state_id": "IR04", "state_name": "Esfahan" }, "geometry": { "type": "Point", "coordinates": [ 51.64, 31.93 ] } },
{ "type": "Feature", "properties": { "station_name": "DAMANEH-FARIDAN", "station_id": "19225", "station_latitude": 33.0167, "station_longitude": 50.4833, "station_altitude": 2300.0, "date_min": "2000-01-01T00:00:00", "date_max": "2011-07-31T00:00:00", "state_id": "IR04", "state_name": "Esfahan" }, "geometry": { "type": "Point", "coordinates": [ 50.4833, 33.0167 ] } },
{ "type": "Feature", "properties": { "station_name": "DAMAVAND", "station_id": "99369", "station_latitude": 35.715778, "station_longitude": 52.052512, "station_altitude": 2051.0, "date_min": "2009-01-01T00:00:00", "date_max": "2022-07-12T00:00:00", "state_id": "IR07", "state_name": "Tehran" }, "geometry": { "type": "Point", "coordinates": [ 52.052512, 35.715778 ] } },
{ "type": "Feature", "properties": { "station_name": "DAMGHAN", "station_id": "18530", "station_latitude": 36.2167, "station_longitude": 54.3167, "station_altitude": 1170.0, "date_min": "2000-01-01T00:00:00", "date_max": "2001-07-31T00:00:00", "state_id": "IR12", "state_name": "Semnan" }, "geometry": { "type": "Point", "coordinates": [ 54.3167, 36.2167 ] } },
{ "type": "Feature", "properties": { "station_name": "DAMGHAN", "station_id": "40761", "station_latitude": 36.14944444, "station_longitude": 54.32277778, "station_altitude": 1155.4, "date_min": "2002-05-01T00:00:00", "date_max": "2022-07-12T00:00:00", "state_id": "IR12", "state_name": "Semnan" }, "geometry": { "type": "Point", "coordinates": [ 54.32277778, 36.14944444 ] } },
{ "type": "Feature", "properties": { "station_name": "DANDI", "station_id": "18409", "station_latitude": 36.55, "station_longitude": 47.62, "station_altitude": 1584.0, "date_min": "2018-10-03T00:00:00", "date_max": "2022-07-12T00:00:00", "state_id": "IR11", "state_name": "Zanjan" }, "geometry": { "type": "Point", "coordinates": [ 47.62, 36.55 ] } },
{ "type": "Feature", "properties": { "station_name": "DANESHGA ZANJAN", "station_id": "99312", "station_latitude": 36.68, "station_longitude": 48.39, "station_altitude": 1579.0, "date_min": "2018-11-17T00:00:00", "date_max": "2022-07-12T00:00:00", "state_id": "IR11", "state_name": "Zanjan" }, "geometry": { "type": "Point", "coordinates": [ 48.39, 36.68 ] } },
{ "type": "Feature", "properties": { "station_name": "DANESHGAH AZAD", "station_id": "19011", "station_latitude": 34.28, "station_longitude": 47.02, "station_altitude": 1485.0, "date_min": "2011-06-01T00:00:00", "date_max": "2022-07-12T00:00:00", "state_id": "IR17", "state_name": "Kermanshah" }, "geometry": { "type": "Point", "coordinates": [ 47.02, 34.28 ] } },
{ "type": "Feature", "properties": { "station_name": "DANESHGAH BAHONAR", "station_id": "19632", "station_latitude": 30.23, "station_longitude": 57.12, "station_altitude": 1770.0, "date_min": "2019-01-16T00:00:00", "date_max": "2022-07-12T00:00:00", "state_id": "IR15", "state_name": "Kerman" }, "geometry": { "type": "Point", "coordinates": [ 57.12, 30.23 ] } },
{ "type": "Feature", "properties": { "station_name": "DANESHGAH SHAHID CHAMRAN", "station_id": "19514", "station_latitude": 31.3333, "station_longitude": 48.6667, "station_altitude": 20.0, "date_min": "2000-01-01T00:00:00", "date_max": "2012-12-31T00:00:00", "state_id": "IR10", "state_name": "Khuzestan" }, "geometry": { "type": "Point", "coordinates": [ 48.6667, 31.3333 ] } },
{ "type": "Feature", "properties": { "station_name": "DANESHGAH ZANJAN", "station_id": "18365", "station_latitude": 36.68, "station_longitude": 48.4, "station_altitude": 1579.0, "date_min": "2003-01-01T00:00:00", "date_max": "2022-07-12T00:00:00", "state_id": "IR11", "state_name": "Zanjan" }, "geometry": { "type": "Point", "coordinates": [ 48.4, 36.68 ] } },
{ "type": "Feature", "properties": { "station_name": "DANESHGAHBUALI", "station_id": "18920", "station_latitude": 34.8, "station_longitude": 48.48, "station_altitude": 1834.0, "date_min": "2019-04-24T00:00:00", "date_max": "2022-07-12T00:00:00", "state_id": "IR24", "state_name": "Hamadan" }, "geometry": { "type": "Point", "coordinates": [ 48.48, 34.8 ] } },
{ "type": "Feature", "properties": { "station_name": "DANESHGAHE MOLASANY", "station_id": "19456", "station_latitude": 31.6, "station_longitude": 48.8667, "station_altitude": 30.0, "date_min": "2000-01-01T00:00:00", "date_max": "2012-10-31T00:00:00", "state_id": "IR10", "state_name": "Khuzestan" }, "geometry": { "type": "Point", "coordinates": [ 48.8667, 31.6 ] } },
{ "type": "Feature", "properties": { "station_name": "DANESHGAHKORDESTAN", "station_id": "18842", "station_latitude": 35.27, "station_longitude": 47.0, "station_altitude": 0.0, "date_min": "2022-06-23T00:00:00", "date_max": "2022-07-12T00:00:00", "state_id": "IR16", "state_name": "Kordestan" }, "geometry": { "type": "Point", "coordinates": [ 47.0, 35.27 ] } },
{ "type": "Feature", "properties": { "station_name": "DANESHGAHNAZLUORUMIYE", "station_id": "99256", "station_latitude": 37.65, "station_longitude": 44.96, "station_altitude": 1363.0, "date_min": "2016-07-25T00:00:00", "date_max": "2022-07-12T00:00:00", "state_id": "IR02", "state_name": "West Azarbaijan" }, "geometry": { "type": "Point", "coordinates": [ 44.96, 37.65 ] } },
{ "type": "Feature", "properties": { "station_name": "DANESHKADEHKESHAVARZEI SARI", "station_id": "18371", "station_latitude": 36.65, "station_longitude": 53.00666667, "station_altitude": -15.0, "date_min": "2003-01-01T00:00:00", "date_max": "2015-12-31T00:00:00", "state_id": "IR21", "state_name": "Mazandaran" }, "geometry": { "type": "Point", "coordinates": [ 53.00666667, 36.65 ] } },
{ "type": "Feature", "properties": { "station_name": "DARAN", "station_id": "40787", "station_latitude": 32.96666667, "station_longitude": 50.36666667, "station_altitude": 2290.0, "date_min": "2000-01-01T00:00:00", "date_max": "2022-07-12T00:00:00", "state_id": "IR04", "state_name": "Esfahan" }, "geometry": { "type": "Point", "coordinates": [ 50.36666667, 32.96666667 ] } },
{ "type": "Feature", "properties": { "station_name": "DAREGAZ", "station_id": "40807", "station_latitude": 37.46666667, "station_longitude": 59.06666667, "station_altitude": 514.0, "date_min": "2008-01-01T00:00:00", "date_max": "2022-07-12T00:00:00", "state_id": "IR30", "state_name": "Razavi Khorasan" }, "geometry": { "type": "Point", "coordinates": [ 59.06666667, 37.46666667 ] } },
{ "type": "Feature", "properties": { "station_name": "DARGAZIN-HAMEDAN", "station_id": "18817", "station_latitude": 35.35, "station_longitude": 49.0667, "station_altitude": 1840.0, "date_min": "2000-01-01T00:00:00", "date_max": "2010-12-31T00:00:00", "state_id": "IR24", "state_name": "Hamadan" }, "geometry": { "type": "Point", "coordinates": [ 49.0667, 35.35 ] } },
{ "type": "Feature", "properties": { "station_name": "DARGIR", "station_id": "19931", "station_latitude": 27.3, "station_longitude": 56.3333, "station_altitude": 92.0, "date_min": "2000-01-01T00:00:00", "date_max": "2009-12-31T00:00:00", "state_id": "IR23", "state_name": "Hormozgan" }, "geometry": { "type": "Point", "coordinates": [ 56.3333, 27.3 ] } },
{ "type": "Feature", "properties": { "station_name": "DARMIAN", "station_id": "99442", "station_latitude": 32.92, "station_longitude": 60.02, "station_altitude": 1500.0, "date_min": "2017-11-26T00:00:00", "date_max": "2022-07-12T00:00:00", "state_id": "IR29", "state_name": "South Khorasan" }, "geometry": { "type": "Point", "coordinates": [ 60.02, 32.92 ] } },
{ "type": "Feature", "properties": { "station_name": "DARREHSHAHR", "station_id": "40842", "station_latitude": 33.13722222, "station_longitude": 47.4075, "station_altitude": 670.0, "date_min": "2002-09-04T00:00:00", "date_max": "2022-07-12T00:00:00", "state_id": "IR05", "state_name": "Ilam" }, "geometry": { "type": "Point", "coordinates": [ 47.4075, 33.13722222 ] } },
{ "type": "Feature", "properties": { "station_name": "DARYACHE NAMAK", "station_id": "19607", "station_latitude": 30.43, "station_longitude": 48.1, "station_altitude": 4.0, "date_min": "2004-01-01T00:00:00", "date_max": "2022-06-30T00:00:00", "state_id": "IR10", "state_name": "Khuzestan" }, "geometry": { "type": "Point", "coordinates": [ 48.1, 30.43 ] } },
{ "type": "Feature", "properties": { "station_name": "DASHT", "station_id": "18224", "station_latitude": 37.31, "station_longitude": 56.0, "station_altitude": 1008.0, "date_min": "2001-01-01T00:00:00", "date_max": "2022-07-12T00:00:00", "state_id": "IR31", "state_name": "North Khorasan" }, "geometry": { "type": "Point", "coordinates": [ 56.0, 37.31 ] } },
{ "type": "Feature", "properties": { "station_name": "DASHT GOLESTAN (KALPOUSH)", "station_id": "18222", "station_latitude": 37.2831, "station_longitude": 56.0167, "station_altitude": 1000.0, "date_min": "2000-01-01T00:00:00", "date_max": "2012-12-31T00:00:00", "state_id": "IR31", "state_name": "North Khorasan" }, "geometry": { "type": "Point", "coordinates": [ 56.0167, 37.2831 ] } },
{ "type": "Feature", "properties": { "station_name": "DASHT KHAK", "station_id": "19554", "station_latitude": 31.07, "station_longitude": 56.55, "station_altitude": 2300.0, "date_min": "2019-12-04T00:00:00", "date_max": "2022-07-12T00:00:00", "state_id": "IR15", "state_name": "Kerman" }, "geometry": { "type": "Point", "coordinates": [ 56.55, 31.07 ] } },
{ "type": "Feature", "properties": { "station_name": "DASHTE NAMDAN", "station_id": "19577", "station_latitude": 30.84, "station_longitude": 52.52, "station_altitude": 2375.0, "date_min": "2012-01-01T00:00:00", "date_max": "2022-07-12T00:00:00", "state_id": "IR14", "state_name": "Fars" }, "geometry": { "type": "Point", "coordinates": [ 52.52, 30.84 ] } },
{ "type": "Feature", "properties": { "station_name": "DASTGERD-SHAHROOD", "station_id": "18570", "station_latitude": 36.1333, "station_longitude": 56.1, "station_altitude": 985.0, "date_min": "2001-01-01T00:00:00", "date_max": "2005-09-30T00:00:00", "state_id": "IR12", "state_name": "Semnan" }, "geometry": { "type": "Point", "coordinates": [ 56.1, 36.1333 ] } },
{ "type": "Feature", "properties": { "station_name": "DASTJERD", "station_id": "18958", "station_latitude": 34.57, "station_longitude": 50.21, "station_altitude": 1895.0, "date_min": "2018-04-29T00:00:00", "date_max": "2022-07-12T00:00:00", "state_id": "IR26", "state_name": "Qom" }, "geometry": { "type": "Point", "coordinates": [ 50.21, 34.57 ] } },
{ "type": "Feature", "properties": { "station_name": "DAYHOOK", "station_id": "19185", "station_latitude": 33.28, "station_longitude": 57.51, "station_altitude": 1338.0, "date_min": "2007-01-01T00:00:00", "date_max": "2022-06-30T00:00:00", "state_id": "IR25", "state_name": "Yazd" }, "geometry": { "type": "Point", "coordinates": [ 57.51, 33.28 ] } },
{ "type": "Feature", "properties": { "station_name": "DEABAL KHAZAEE", "station_id": "19551", "station_latitude": 31.13, "station_longitude": 48.58, "station_altitude": 7.0, "date_min": "2001-03-01T00:00:00", "date_max": "2022-06-30T00:00:00", "state_id": "IR10", "state_name": "Khuzestan" }, "geometry": { "type": "Point", "coordinates": [ 48.58, 31.13 ] } },
{ "type": "Feature", "properties": { "station_name": "DEHAGH", "station_id": "19205", "station_latitude": 33.08, "station_longitude": 50.97, "station_altitude": 1960.0, "date_min": "2002-06-01T00:00:00", "date_max": "2019-10-31T00:00:00", "state_id": "IR04", "state_name": "Esfahan" }, "geometry": { "type": "Point", "coordinates": [ 50.97, 33.08 ] } },
{ "type": "Feature", "properties": { "station_name": "DEHAGH", "station_id": "99484", "station_latitude": 33.0975, "station_longitude": 50.97555556, "station_altitude": 1946.7, "date_min": "2016-08-07T00:00:00", "date_max": "2022-07-12T00:00:00", "state_id": "IR04", "state_name": "Esfahan" }, "geometry": { "type": "Point", "coordinates": [ 50.97555556, 33.0975 ] } },
{ "type": "Feature", "properties": { "station_name": "DEHCHENAR", "station_id": "19564", "station_latitude": 31.4, "station_longitude": 56.9, "station_altitude": 1660.0, "date_min": "2000-01-01T00:00:00", "date_max": "2022-03-26T00:00:00", "state_id": "IR15", "state_name": "Kerman" }, "geometry": { "type": "Point", "coordinates": [ 56.9, 31.4 ] } },
{ "type": "Feature", "properties": { "station_name": "DEHDASHT", "station_id": "40838", "station_latitude": 30.78833333, "station_longitude": 50.58638889, "station_altitude": 793.3, "date_min": "2006-09-01T00:00:00", "date_max": "2022-07-12T00:00:00", "state_id": "IR18", "state_name": "Kohgiluyeh and Buyer Ahmad" }, "geometry": { "type": "Point", "coordinates": [ 50.58638889, 30.78833333 ] } },
{ "type": "Feature", "properties": { "station_name": "DEHDEZ", "station_id": "99527", "station_latitude": 31.70833333, "station_longitude": 50.28138889, "station_altitude": 1457.0, "date_min": "2005-01-01T00:00:00", "date_max": "2022-07-12T00:00:00", "state_id": "IR10", "state_name": "Khuzestan" }, "geometry": { "type": "Point", "coordinates": [ 50.28138889, 31.70833333 ] } },
{ "type": "Feature", "properties": { "station_name": "DEHGOLAN", "station_id": "18833", "station_latitude": 35.28, "station_longitude": 47.42, "station_altitude": 1815.0, "date_min": "2015-01-01T00:00:00", "date_max": "2022-07-12T00:00:00", "state_id": "IR16", "state_name": "Kordestan" }, "geometry": { "type": "Point", "coordinates": [ 47.42, 35.28 ] } },
{ "type": "Feature", "properties": { "station_name": "DEHKHODA", "station_id": "-999", "station_latitude": 28.17, "station_longitude": 48.88, "station_altitude": 18.0, "date_min": "2012-01-01T00:00:00", "date_max": "2014-04-30T00:00:00", "state_id": "IR06", "state_name": "Bushehr" }, "geometry": { "type": "Point", "coordinates": [ 48.88, 28.17 ] } },
{ "type": "Feature", "properties": { "station_name": "DEHLORAN", "station_id": "40796", "station_latitude": 32.68055556, "station_longitude": 47.28111111, "station_altitude": 232.0, "date_min": "2000-01-01T00:00:00", "date_max": "2022-07-12T00:00:00", "state_id": "IR05", "state_name": "Ilam" }, "geometry": { "type": "Point", "coordinates": [ 47.28111111, 32.68055556 ] } },
{ "type": "Feature", "properties": { "station_name": "DEHNOW FATHOLMOBIN", "station_id": "19859", "station_latitude": 28.33, "station_longitude": 57.7, "station_altitude": 555.0, "date_min": "2000-01-01T00:00:00", "date_max": "2022-05-31T00:00:00", "state_id": "IR15", "state_name": "Kerman" }, "geometry": { "type": "Point", "coordinates": [ 57.7, 28.33 ] } },
{ "type": "Feature", "properties": { "station_name": "DEHRAM (DEJGAH)", "station_id": "19894", "station_latitude": 28.489478, "station_longitude": 52.309506, "station_altitude": 411.0, "date_min": "2018-08-06T00:00:00", "date_max": "2022-07-12T00:00:00", "state_id": "IR14", "state_name": "Fars" }, "geometry": { "type": "Point", "coordinates": [ 52.309506, 28.489478 ] } },
{ "type": "Feature", "properties": { "station_name": "DEHSALAM", "station_id": "99536", "station_latitude": 31.1997, "station_longitude": 59.3167, "station_altitude": 815.0, "date_min": "2011-11-23T00:00:00", "date_max": "2022-07-12T00:00:00", "state_id": "IR29", "state_name": "South Khorasan" }, "geometry": { "type": "Point", "coordinates": [ 59.3167, 31.1997 ] } },
{ "type": "Feature", "properties": { "station_name": "DEHSEYF ZIYARATGAH", "station_id": "19602", "station_latitude": 30.57, "station_longitude": 57.82, "station_altitude": 353.0, "date_min": "2000-02-01T00:00:00", "date_max": "2022-04-30T00:00:00", "state_id": "IR15", "state_name": "Kerman" }, "geometry": { "type": "Point", "coordinates": [ 57.82, 30.57 ] } },
{ "type": "Feature", "properties": { "station_name": "DELGAN", "station_id": "40885", "station_latitude": 27.48333333, "station_longitude": 59.45, "station_altitude": 391.0, "date_min": "2016-11-26T00:00:00", "date_max": "2022-07-12T00:00:00", "state_id": "IR13", "state_name": "Sistan and Baluchestan" }, "geometry": { "type": "Point", "coordinates": [ 59.45, 27.48333333 ] } },
{ "type": "Feature", "properties": { "station_name": "DELIJAN", "station_id": "99461", "station_latitude": 33.97722222, "station_longitude": 50.68611111, "station_altitude": 1524.3, "date_min": "2003-01-01T00:00:00", "date_max": "2022-07-12T00:00:00", "state_id": "IR22", "state_name": "Markazi" }, "geometry": { "type": "Point", "coordinates": [ 50.68611111, 33.97722222 ] } },
{ "type": "Feature", "properties": { "station_name": "DEYLAMAN", "station_id": "99302", "station_latitude": 36.88583333, "station_longitude": 49.91, "station_altitude": 1447.6, "date_min": "2007-01-01T00:00:00", "date_max": "2022-07-12T00:00:00", "state_id": "IR19", "state_name": "Gilan" }, "geometry": { "type": "Point", "coordinates": [ 49.91, 36.88583333 ] } },
{ "type": "Feature", "properties": { "station_name": "DEZFUL (AIRPORT)", "station_id": "40795", "station_latitude": 32.3994, "station_longitude": 48.3831, "station_altitude": 143.0, "date_min": "2000-01-01T00:00:00", "date_max": "2022-07-12T00:00:00", "state_id": "IR10", "state_name": "Khuzestan" }, "geometry": { "type": "Point", "coordinates": [ 48.3831, 32.3994 ] } },
{ "type": "Feature", "properties": { "station_name": "DOAB SAMSAMI", "station_id": "19350", "station_latitude": 32.17, "station_longitude": 50.29, "station_altitude": 2064.0, "date_min": "2019-12-04T00:00:00", "date_max": "2022-07-12T00:00:00", "state_id": "IR08", "state_name": "Chahar Mahall and Bakhtiari" }, "geometry": { "type": "Point", "coordinates": [ 50.29, 32.17 ] } },
{ "type": "Feature", "properties": { "station_name": "DOGONBADAN", "station_id": "40835", "station_latitude": 30.34611111, "station_longitude": 50.81916667, "station_altitude": 726.0, "date_min": "2000-01-01T00:00:00", "date_max": "2022-07-12T00:00:00", "state_id": "IR18", "state_name": "Kohgiluyeh and Buyer Ahmad" }, "geometry": { "type": "Point", "coordinates": [ 50.81916667, 30.34611111 ] } },
{ "type": "Feature", "properties": { "station_name": "DOLATABAD", "station_id": "19254", "station_latitude": 32.81, "station_longitude": 51.7, "station_altitude": 1560.0, "date_min": "2018-10-07T00:00:00", "date_max": "2022-07-12T00:00:00", "state_id": "IR04", "state_name": "Esfahan" }, "geometry": { "type": "Point", "coordinates": [ 51.7, 32.81 ] } },
{ "type": "Feature", "properties": { "station_name": "DOODAHAK (ABBASABAD-GHOM)", "station_id": "19023", "station_latitude": 34.1494, "station_longitude": 50.5667, "station_altitude": 1400.0, "date_min": "2001-01-01T00:00:00", "date_max": "2015-03-06T00:00:00", "state_id": "IR22", "state_name": "Markazi" }, "geometry": { "type": "Point", "coordinates": [ 50.5667, 34.1494 ] } },
{ "type": "Feature", "properties": { "station_name": "DOROH", "station_id": "19263", "station_latitude": 32.3, "station_longitude": 60.5, "station_altitude": 1169.0, "date_min": "2020-10-31T00:00:00", "date_max": "2022-07-12T00:00:00", "state_id": "IR29", "state_name": "South Khorasan" }, "geometry": { "type": "Point", "coordinates": [ 60.5, 32.3 ] } },
{ "type": "Feature", "properties": { "station_name": "DORUD", "station_id": "99444", "station_latitude": 33.52361111, "station_longitude": 49.00444444, "station_altitude": 1522.3, "date_min": "2000-01-01T00:00:00", "date_max": "2022-07-12T00:00:00", "state_id": "IR20", "state_name": "Lorestan" }, "geometry": { "type": "Point", "coordinates": [ 49.00444444, 33.52361111 ] } },
{ "type": "Feature", "properties": { "station_name": "DORUDZAN", "station_id": "40844", "station_latitude": 30.20611111, "station_longitude": 52.42138889, "station_altitude": 1642.0, "date_min": "2000-01-01T00:00:00", "date_max": "2022-07-12T00:00:00", "state_id": "IR14", "state_name": "Fars" }, "geometry": { "type": "Point", "coordinates": [ 52.42138889, 30.20611111 ] } },
{ "type": "Feature", "properties": { "station_name": "DORZ AND SAYEBAN LAR", "station_id": "19905", "station_latitude": 27.86, "station_longitude": 55.42, "station_altitude": 706.0, "date_min": "2000-02-01T00:00:00", "date_max": "2022-07-12T00:00:00", "state_id": "IR14", "state_name": "Fars" }, "geometry": { "type": "Point", "coordinates": [ 55.42, 27.86 ] } },
{ "type": "Feature", "properties": { "station_name": "DOWSHAN TAPPEH", "station_id": "40753", "station_latitude": 35.7017, "station_longitude": 51.4756, "station_altitude": 1209.2, "date_min": "2000-01-01T00:00:00", "date_max": "2022-07-12T00:00:00", "state_id": "IR07", "state_name": "Tehran" }, "geometry": { "type": "Point", "coordinates": [ 51.4756, 35.7017 ] } },
{ "type": "Feature", "properties": { "station_name": "DOZAJ", "station_id": "18804", "station_latitude": 35.32, "station_longitude": 49.58, "station_altitude": 2065.0, "date_min": "2000-01-01T00:00:00", "date_max": "2017-06-30T00:00:00", "state_id": "IR22", "state_name": "Markazi" }, "geometry": { "type": "Point", "coordinates": [ 49.58, 35.32 ] } },
{ "type": "Feature", "properties": { "station_name": "DRYLAND AGRICULTURAL RESEARCH INSTITUTE", "station_id": "18226", "station_latitude": 37.28, "station_longitude": 46.45, "station_altitude": 1725.0, "date_min": "2000-01-01T00:00:00", "date_max": "2022-06-30T00:00:00", "state_id": "IR01", "state_name": "East Azarbaijan" }, "geometry": { "type": "Point", "coordinates": [ 46.45, 37.28 ] } },
{ "type": "Feature", "properties": { "station_name": "EIVANAKY", "station_id": "99405", "station_latitude": 35.33, "station_longitude": 52.07, "station_altitude": 1060.0, "date_min": "2016-07-25T00:00:00", "date_max": "2022-07-12T00:00:00", "state_id": "IR12", "state_name": "Semnan" }, "geometry": { "type": "Point", "coordinates": [ 52.07, 35.33 ] } },
{ "type": "Feature", "properties": { "station_name": "EIVANEKEY", "station_id": "18821", "station_latitude": 35.33333333, "station_longitude": 52.06666667, "station_altitude": 835.0, "date_min": "2000-01-01T00:00:00", "date_max": "2015-12-31T00:00:00", "state_id": "IR12", "state_name": "Semnan" }, "geometry": { "type": "Point", "coordinates": [ 52.06666667, 35.33333333 ] } },
{ "type": "Feature", "properties": { "station_name": "EKBATAN-HAMEDAN", "station_id": "18905", "station_latitude": 34.8667, "station_longitude": 48.55, "station_altitude": 1730.0, "date_min": "2000-02-01T00:00:00", "date_max": "2012-12-31T00:00:00", "state_id": "IR24", "state_name": "Hamadan" }, "geometry": { "type": "Point", "coordinates": [ 48.55, 34.8667 ] } },
{ "type": "Feature", "properties": { "station_name": "EKHTIAR ABAD KAHNOJ", "station_id": "19897", "station_latitude": 27.9667, "station_longitude": 57.7, "station_altitude": 485.0, "date_min": "2000-01-01T00:00:00", "date_max": "2002-06-30T00:00:00", "state_id": "IR15", "state_name": "Kerman" }, "geometry": { "type": "Point", "coordinates": [ 57.7, 27.9667 ] } },
{ "type": "Feature", "properties": { "station_name": "EMAM GHAES", "station_id": "19439", "station_latitude": 31.73, "station_longitude": 51.3, "station_altitude": 2285.0, "date_min": "2000-01-01T00:00:00", "date_max": "2022-07-12T00:00:00", "state_id": "IR04", "state_name": "Esfahan" }, "geometry": { "type": "Point", "coordinates": [ 51.3, 31.73 ] } },
{ "type": "Feature", "properties": { "station_name": "EMAM KHOMEINI (AIRPORT)", "station_id": "18799", "station_latitude": 35.45, "station_longitude": 51.1, "station_altitude": 1006.0, "date_min": "2000-01-02T00:00:00", "date_max": "2003-12-31T00:00:00", "state_id": "IR07", "state_name": "Tehran" }, "geometry": { "type": "Point", "coordinates": [ 51.1, 35.45 ] } },
{ "type": "Feature", "properties": { "station_name": "EMAMZADEH JAFAR", "station_id": "99565", "station_latitude": 30.30111111, "station_longitude": 50.98472222, "station_altitude": 668.0, "date_min": "2001-01-01T00:00:00", "date_max": "2022-07-12T00:00:00", "state_id": "IR18", "state_name": "Kohgiluyeh and Buyer Ahmad" }, "geometry": { "type": "Point", "coordinates": [ 50.98472222, 30.30111111 ] } },
{ "type": "Feature", "properties": { "station_name": "EQLID", "station_id": "40828", "station_latitude": 30.9, "station_longitude": 52.63333333, "station_altitude": 2300.0, "date_min": "2000-01-01T00:00:00", "date_max": "2022-07-12T00:00:00", "state_id": "IR14", "state_name": "Fars" }, "geometry": { "type": "Point", "coordinates": [ 52.63333333, 30.9 ] } },
{ "type": "Feature", "properties": { "station_name": "ERANDEGAN", "station_id": "19921", "station_latitude": 27.66, "station_longitude": 61.03, "station_altitude": 1282.0, "date_min": "2019-01-01T00:00:00", "date_max": "2022-04-30T00:00:00", "state_id": "IR13", "state_name": "Sistan and Baluchestan" }, "geometry": { "type": "Point", "coordinates": [ 61.03, 27.66 ] } },
{ "type": "Feature", "properties": { "station_name": "ESFAHAN", "station_id": "40800", "station_latitude": 32.5172, "station_longitude": 51.7063, "station_altitude": 1551.9, "date_min": "2000-01-01T00:00:00", "date_max": "2022-07-12T00:00:00", "state_id": "IR04", "state_name": "Esfahan" }, "geometry": { "type": "Point", "coordinates": [ 51.7063, 32.5172 ] } },
{ "type": "Feature", "properties": { "station_name": "ESFAHAN (AIRPORT)", "station_id": "40802", "station_latitude": 32.74416667, "station_longitude": 51.86305556, "station_altitude": 1550.0, "date_min": "2000-01-01T00:00:00", "date_max": "2022-07-12T00:00:00", "state_id": "IR04", "state_name": "Esfahan" }, "geometry": { "type": "Point", "coordinates": [ 51.86305556, 32.74416667 ] } },
{ "type": "Feature", "properties": { "station_name": "ESFANDABAD", "station_id": "19567", "station_latitude": 30.93, "station_longitude": 53.43, "station_altitude": 1463.0, "date_min": "2000-01-01T00:00:00", "date_max": "2022-07-12T00:00:00", "state_id": "IR14", "state_name": "Fars" }, "geometry": { "type": "Point", "coordinates": [ 53.43, 30.93 ] } },
{ "type": "Feature", "properties": { "station_name": "ESFARAYEN", "station_id": "99287", "station_latitude": 37.05, "station_longitude": 57.48333333, "station_altitude": 1216.0, "date_min": "2006-11-01T00:00:00", "date_max": "2022-07-12T00:00:00", "state_id": "IR31", "state_name": "North Khorasan" }, "geometry": { "type": "Point", "coordinates": [ 57.48333333, 37.05 ] } },
{ "type": "Feature", "properties": { "station_name": "ESHGH ABAD", "station_id": "19003", "station_latitude": 34.35, "station_longitude": 56.9308333, "station_altitude": 774.0, "date_min": "2003-07-01T00:00:00", "date_max": "2022-06-30T00:00:00", "state_id": "IR25", "state_name": "Yazd" }, "geometry": { "type": "Point", "coordinates": [ 56.9308333, 34.35 ] } },
{ "type": "Feature", "properties": { "station_name": "ESHTEHARD", "station_id": "18712", "station_latitude": 35.72, "station_longitude": 50.37, "station_altitude": 1191.0, "date_min": "2017-10-01T00:00:00", "date_max": "2022-07-12T00:00:00", "state_id": "IR09", "state_name": "Alborz" }, "geometry": { "type": "Point", "coordinates": [ 50.37, 35.72 ] } },
{ "type": "Feature", "properties": { "station_name": "ESLAMABAD-E-GHARB", "station_id": "40779", "station_latitude": 34.11666667, "station_longitude": 46.46666667, "station_altitude": 1349.0, "date_min": "2000-01-01T00:00:00", "date_max": "2022-07-12T00:00:00", "state_id": "IR17", "state_name": "Kermanshah" }, "geometry": { "type": "Point", "coordinates": [ 46.46666667, 34.11666667 ] } },
{ "type": "Feature", "properties": { "station_name": "ESMAEELABAD", "station_id": "18275", "station_latitude": 37.05, "station_longitude": 57.14, "station_altitude": 1000.0, "date_min": "2018-05-26T00:00:00", "date_max": "2022-07-12T00:00:00", "state_id": "IR31", "state_name": "North Khorasan" }, "geometry": { "type": "Point", "coordinates": [ 57.14, 37.05 ] } },
{ "type": "Feature", "properties": { "station_name": "ESMAEILABADEGHBALIE", "station_id": "99355", "station_latitude": 36.25, "station_longitude": 49.8994, "station_altitude": 1249.0, "date_min": "2016-08-13T00:00:00", "date_max": "2022-07-12T00:00:00", "state_id": "IR28", "state_name": "Qazvin" }, "geometry": { "type": "Point", "coordinates": [ 49.8994, 36.25 ] } },
{ "type": "Feature", "properties": { "station_name": "ESMAELABAD", "station_id": "18514", "station_latitude": 36.25, "station_longitude": 49.9, "station_altitude": 1249.0, "date_min": "2019-09-17T00:00:00", "date_max": "2022-07-12T00:00:00", "state_id": "IR28", "state_name": "Qazvin" }, "geometry": { "type": "Point", "coordinates": [ 49.9, 36.25 ] } },
{ "type": "Feature", "properties": { "station_name": "ESTAHBAN", "station_id": "99607", "station_latitude": 29.14055556, "station_longitude": 54.04861111, "station_altitude": 1690.0, "date_min": "2004-01-01T00:00:00", "date_max": "2022-07-12T00:00:00", "state_id": "IR14", "state_name": "Fars" }, "geometry": { "type": "Point", "coordinates": [ 54.04861111, 29.14055556 ] } },
{ "type": "Feature", "properties": { "station_name": "EVOGHLI", "station_id": "18036", "station_latitude": 38.72, "station_longitude": 45.22, "station_altitude": 963.0, "date_min": "2000-01-01T00:00:00", "date_max": "2022-06-30T00:00:00", "state_id": "IR02", "state_name": "West Azarbaijan" }, "geometry": { "type": "Point", "coordinates": [ 45.22, 38.72 ] } },
{ "type": "Feature", "properties": { "station_name": "EYVAN", "station_id": "99433", "station_latitude": 33.76305556, "station_longitude": 46.36, "station_altitude": 1170.0, "date_min": "2000-01-01T00:00:00", "date_max": "2022-07-12T00:00:00", "state_id": "IR05", "state_name": "Ilam" }, "geometry": { "type": "Point", "coordinates": [ 46.36, 33.76305556 ] } },
{ "type": "Feature", "properties": { "station_name": "EZGLEH", "station_id": "18908", "station_latitude": 34.82, "station_longitude": 45.83, "station_altitude": 699.0, "date_min": "2009-01-01T00:00:00", "date_max": "2022-07-12T00:00:00", "state_id": "IR17", "state_name": "Kermanshah" }, "geometry": { "type": "Point", "coordinates": [ 45.83, 34.82 ] } },
{ "type": "Feature", "properties": { "station_name": "FADAK", "station_id": "18969", "station_latitude": 34.5, "station_longitude": 50.99, "station_altitude": 941.0, "date_min": "2018-08-06T00:00:00", "date_max": "2022-07-12T00:00:00", "state_id": "IR26", "state_name": "Qom" }, "geometry": { "type": "Point", "coordinates": [ 50.99, 34.5 ] } },
{ "type": "Feature", "properties": { "station_name": "FAHRAJ", "station_id": "19805", "station_latitude": 28.95, "station_longitude": 58.88, "station_altitude": 649.0, "date_min": "2019-01-15T00:00:00", "date_max": "2022-07-12T00:00:00", "state_id": "IR15", "state_name": "Kerman" }, "geometry": { "type": "Point", "coordinates": [ 58.88, 28.95 ] } },
{ "type": "Feature", "properties": { "station_name": "FAMENIN", "station_id": "99387", "station_latitude": 35.11666667, "station_longitude": 48.98333333, "station_altitude": 1637.0, "date_min": "2011-11-23T00:00:00", "date_max": "2022-07-12T00:00:00", "state_id": "IR24", "state_name": "Hamadan" }, "geometry": { "type": "Point", "coordinates": [ 48.98333333, 35.11666667 ] } },
{ "type": "Feature", "properties": { "station_name": "FARABI", "station_id": "-999", "station_latitude": 30.9833, "station_longitude": 48.6, "station_altitude": 7.0, "date_min": "2013-01-01T00:00:00", "date_max": "2015-12-31T00:00:00", "state_id": "IR10", "state_name": "Khuzestan" }, "geometry": { "type": "Point", "coordinates": [ 48.6, 30.9833 ] } },
{ "type": "Feature", "properties": { "station_name": "FARAHAN-SUPPLEMENTARY SYNOPTIC", "station_id": "99424", "station_latitude": 34.49666667, "station_longitude": 49.6925, "station_altitude": 1784.0, "date_min": "2022-02-06T00:00:00", "date_max": "2022-07-12T00:00:00", "state_id": "IR22", "state_name": "Markazi" }, "geometry": { "type": "Point", "coordinates": [ 49.6925, 34.49666667 ] } },
{ "type": "Feature", "properties": { "station_name": "FARASHBAND", "station_id": "40864", "station_latitude": 28.8, "station_longitude": 52.1, "station_altitude": 782.0, "date_min": "2009-07-01T00:00:00", "date_max": "2022-07-12T00:00:00", "state_id": "IR14", "state_name": "Fars" }, "geometry": { "type": "Point", "coordinates": [ 52.1, 28.8 ] } },
{ "type": "Feature", "properties": { "station_name": "FARGHAN", "station_id": "19893", "station_latitude": 28.01, "station_longitude": 56.26, "station_altitude": 1172.0, "date_min": "2022-06-23T00:00:00", "date_max": "2022-07-12T00:00:00", "state_id": "IR23", "state_name": "Hormozgan" }, "geometry": { "type": "Point", "coordinates": [ 56.26, 28.01 ] } },